[{"zip":"29525","cityData":{"country_code":"DE","postal_code":"29525","state":"Niedersachsen","place_name":"Uelzen","lat":"52.97190776","lng":"10.56642912"}},{"zip":"31311","cityData":{"country_code":"DE","postal_code":"31311","state":"Niedersachsen","place_name":"Uetze","lat":"52.46161228","lng":"10.16781237"}},{"zip":"82449","cityData":{"country_code":"DE","postal_code":"82449","state":"Bayern","place_name":"Uffing am Staffelsee","lat":"47.71071795","lng":"11.10787328"}},{"zip":"73066","cityData":{"country_code":"DE","postal_code":"73066","state":"Baden-Württemberg","place_name":"Uhingen","lat":"48.72317130","lng":"9.56539992"}},{"zip":"88690","cityData":{"country_code":"DE","postal_code":"88690","state":"Baden-Württemberg","place_name":"Uhldingen-Mühlhofen","lat":"47.73681061","lng":"9.24591494"}},{"zip":"79777","cityData":{"country_code":"DE","postal_code":"79777","state":"Baden-Württemberg","place_name":"Ühlingen-Birkendorf","lat":"47.72358072","lng":"8.29653923"}},{"zip":"89073","cityData":{"country_code":"DE","postal_code":"89073","state":"Baden-Württemberg","place_name":"Ulm","lat":"48.40528253","lng":"9.99968113"}},{"zip":"89075","cityData":{"country_code":"DE","postal_code":"89075","state":"Baden-Württemberg","place_name":"Ulm","lat":"48.41860504","lng":"9.99318350"}},{"zip":"89077","cityData":{"country_code":"DE","postal_code":"89077","state":"Baden-Württemberg","place_name":"Ulm","lat":"48.39391632","lng":"9.96904172"}},{"zip":"89079","cityData":{"country_code":"DE","postal_code":"89079","state":"Baden-Württemberg","place_name":"Ulm","lat":"48.35068238","lng":"9.93098923"}},{"zip":"35327","cityData":{"country_code":"DE","postal_code":"35327","state":"Hessen","place_name":"Ulrichstein","lat":"50.57767389","lng":"9.18479315"}},{"zip":"24897","cityData":{"country_code":"DE","postal_code":"24897","state":"Schleswig-Holstein","place_name":"Ulsnis","lat":"54.57625723","lng":"9.75035847"}},{"zip":"79224","cityData":{"country_code":"DE","postal_code":"79224","state":"Baden-Württemberg","place_name":"Umkirch","lat":"48.03327391","lng":"7.76470719"}},{"zip":"88444","cityData":{"country_code":"DE","postal_code":"88444","state":"Baden-Württemberg","place_name":"Ummendorf","lat":"48.05436612","lng":"9.83953548"}},{"zip":"29369","cityData":{"country_code":"DE","postal_code":"29369","state":"Niedersachsen","place_name":"Ummern","lat":"52.58858245","lng":"10.44050919"}},{"zip":"21274","cityData":{"country_code":"DE","postal_code":"21274","state":"Niedersachsen","place_name":"Undeloh","lat":"53.20961145","lng":"9.92510903"}},{"zip":"87781","cityData":{"country_code":"DE","postal_code":"87781","state":"Bayern","place_name":"Ungerhausen","lat":"48.00040696","lng":"10.26928066"}},{"zip":"88527","cityData":{"country_code":"DE","postal_code":"88527","state":"Baden-Württemberg","place_name":"Unlingen","lat":"48.17541551","lng":"9.53666085"}},{"zip":"59423","cityData":{"country_code":"DE","postal_code":"59423","state":"Nordrhein-Westfalen","place_name":"Unna","lat":"51.53185742","lng":"7.69071136"}},{"zip":"59425","cityData":{"country_code":"DE","postal_code":"59425","state":"Nordrhein-Westfalen","place_name":"Unna","lat":"51.55494081","lng":"7.69662984"}},{"zip":"59427","cityData":{"country_code":"DE","postal_code":"59427","state":"Nordrhein-Westfalen","place_name":"Unna","lat":"51.53537854","lng":"7.74413482"}},{"zip":"99991","cityData":{"country_code":"DE","postal_code":"99991","state":"Thüringen","place_name":"Altengottern","lat":"51.17975403","lng":"10.54800034"}},{"zip":"99996","cityData":{"country_code":"DE","postal_code":"99996","state":"Thüringen","place_name":"Menteroda","lat":"51.29324913","lng":"10.57872158"}},{"zip":"82497","cityData":{"country_code":"DE","postal_code":"82497","state":"Bayern","place_name":"Unterammergau","lat":"47.61447675","lng":"11.02088246"}},{"zip":"36414","cityData":{"country_code":"DE","postal_code":"36414","state":"Thüringen","place_name":"Unterbreizbach","lat":"50.79907877","lng":"9.98715800"}},{"zip":"86944","cityData":{"country_code":"DE","postal_code":"86944","state":"Bayern","place_name":"Unterdießen","lat":"47.97637317","lng":"10.84138205"}},{"zip":"84339","cityData":{"country_code":"DE","postal_code":"84339","state":"Bayern","place_name":"Unterdietfurt","lat":"48.39161924","lng":"12.67009722"}},{"zip":"74257","cityData":{"country_code":"DE","postal_code":"74257","state":"Baden-Württemberg","place_name":"Untereisesheim","lat":"49.21112679","lng":"9.19156643"}},{"zip":"72669","cityData":{"country_code":"DE","postal_code":"72669","state":"Baden-Württemberg","place_name":"Unterensingen","lat":"48.66246047","lng":"9.33914664"}},{"zip":"85774","cityData":{"country_code":"DE","postal_code":"85774","state":"Bayern","place_name":"Unterföhring","lat":"48.19200444","lng":"11.66363226"}},{"zip":"74199","cityData":{"country_code":"DE","postal_code":"74199","state":"Baden-Württemberg","place_name":"Untergruppenbach","lat":"49.09456066","lng":"9.30986113"}},{"zip":"82008","cityData":{"country_code":"DE","postal_code":"82008","state":"Bayern","place_name":"Unterhaching","lat":"48.06817302","lng":"11.61950824"}},{"zip":"78089","cityData":{"country_code":"DE","postal_code":"78089","state":"Baden-Württemberg","place_name":"Unterkirnach","lat":"48.07928770","lng":"8.35433991"}},{"zip":"91364","cityData":{"country_code":"DE","postal_code":"91364","state":"Bayern","place_name":"Unterleinleiter","lat":"49.83000618","lng":"11.17416239"}},{"zip":"89617","cityData":{"country_code":"DE","postal_code":"89617","state":"Baden-Württemberg","place_name":"Untermarchtal","lat":"48.24309659","lng":"9.60774264"}},{"zip":"96190","cityData":{"country_code":"DE","postal_code":"96190","state":"Bayern","place_name":"Untermerzbach","lat":"50.12501111","lng":"10.84126172"}},{"zip":"74547","cityData":{"country_code":"DE","postal_code":"74547","state":"Baden-Württemberg","place_name":"Untermünkheim","lat":"49.16880742","lng":"9.73036255"}},{"zip":"84579","cityData":{"country_code":"DE","postal_code":"84579","state":"Bayern","place_name":"Unterneukirchen","lat":"48.17061019","lng":"12.61926087"}},{"zip":"97294","cityData":{"country_code":"DE","postal_code":"97294","state":"Bayern","place_name":"Unterpleichfeld","lat":"49.87914457","lng":"10.03000406"}},{"zip":"75399","cityData":{"country_code":"DE","postal_code":"75399","state":"Baden-Württemberg","place_name":"Unterreichenbach","lat":"48.81386388","lng":"8.69648300"}},{"zip":"83567","cityData":{"country_code":"DE","postal_code":"83567","state":"Bayern","place_name":"Unterreit","lat":"48.13037532","lng":"12.33060452"}},{"zip":"89299","cityData":{"country_code":"DE","postal_code":"89299","state":"Bayern","place_name":"Unterroth","lat":"48.19607264","lng":"10.18621811"}},{"zip":"85716","cityData":{"country_code":"DE","postal_code":"85716","state":"Bayern","place_name":"Unterschleißheim","lat":"48.27763460","lng":"11.55848274"}},{"zip":"73485","cityData":{"country_code":"DE","postal_code":"73485","state":"Baden-Württemberg","place_name":"Unterschneidheim","lat":"48.93479576","lng":"10.36903641"}},{"zip":"91743","cityData":{"country_code":"DE","postal_code":"91743","state":"Bayern","place_name":"Unterschwaningen","lat":"49.09240889","lng":"10.61906234"}},{"zip":"96253","cityData":{"country_code":"DE","postal_code":"96253","state":"Bayern","place_name":"Untersiemau","lat":"50.20203226","lng":"10.96555791"}},{"zip":"89619","cityData":{"country_code":"DE","postal_code":"89619","state":"Baden-Württemberg","place_name":"Unterstadion","lat":"48.20695077","lng":"9.69933808"}},{"zip":"95369","cityData":{"country_code":"DE","postal_code":"95369","state":"Bayern","place_name":"Untersteinach","lat":"50.14109721","lng":"11.51812040"}},{"zip":"07333","cityData":{"country_code":"DE","postal_code":"07333","state":"Thüringen","place_name":"Unterwellenborn","lat":"50.65000000","lng":"11.43330000"}},{"zip":"83246","cityData":{"country_code":"DE","postal_code":"83246","state":"Bayern","place_name":"Unterwössen","lat":"47.72551323","lng":"12.47405145"}},{"zip":"87496","cityData":{"country_code":"DE","postal_code":"87496","state":"Bayern","place_name":"Untrasried","lat":"47.84775264","lng":"10.36709855"}},{"zip":"26670","cityData":{"country_code":"DE","postal_code":"26670","state":"Niedersachsen","place_name":"Uplengen","lat":"53.31162475","lng":"7.76974661"}},{"zip":"73660","cityData":{"country_code":"DE","postal_code":"73660","state":"Baden-Württemberg","place_name":"Urbach","lat":"48.82500816","lng":"9.58438785"}},{"zip":"56182","cityData":{"country_code":"DE","postal_code":"56182","state":"Rheinland-Pfalz","place_name":"Urbar","lat":"50.38025840","lng":"7.63341846"}},{"zip":"86513","cityData":{"country_code":"DE","postal_code":"86513","state":"Bayern","place_name":"Ursberg","lat":"48.24728130","lng":"10.43957586"}},{"zip":"92289","cityData":{"country_code":"DE","postal_code":"92289","state":"Bayern","place_name":"Ursensollen","lat":"49.37588871","lng":"11.80078419"}},{"zip":"97857","cityData":{"country_code":"DE","postal_code":"97857","state":"Bayern","place_name":"Urspringen","lat":"49.90594030","lng":"9.67853642"}},{"zip":"54539","cityData":{"country_code":"DE","postal_code":"54539","state":"Rheinland-Pfalz","place_name":"Ürzig","lat":"49.97368573","lng":"7.00013642"}},{"zip":"61250","cityData":{"country_code":"DE","postal_code":"61250","state":"Hessen","place_name":"Usingen","lat":"50.34820675","lng":"8.53122810"}},{"zip":"37170","cityData":{"country_code":"DE","postal_code":"37170","state":"Niedersachsen","place_name":"Uslar","lat":"51.64750566","lng":"9.66188195"}},{"zip":"86514","cityData":{"country_code":"DE","postal_code":"86514","state":"Bayern","place_name":"Ustersbach","lat":"48.32413910","lng":"10.63994775"}},{"zip":"88524","cityData":{"country_code":"DE","postal_code":"88524","state":"Baden-Württemberg","place_name":"Uttenweiler","lat":"48.15953231","lng":"9.60799887"}},{"zip":"86919","cityData":{"country_code":"DE","postal_code":"86919","state":"Bayern","place_name":"Utting am Ammersee","lat":"48.01944665","lng":"11.06812159"}},{"zip":"79694","cityData":{"country_code":"DE","postal_code":"79694","state":"Baden-Württemberg","place_name":"Utzenfeld","lat":"47.81345584","lng":"7.91172705"}},{"zip":"54579","cityData":{"country_code":"DE","postal_code":"54579","state":"Rheinland-Pfalz","place_name":"Üxheim","lat":"50.32511792","lng":"6.75750563"}},{"zip":"83377","cityData":{"country_code":"DE","postal_code":"83377","state":"Bayern","place_name":"Vachendorf","lat":"47.84546246","lng":"12.59405010"}},{"zip":"71665","cityData":{"country_code":"DE","postal_code":"71665","state":"Baden-Württemberg","place_name":"Vaihingen an der Enz","lat":"48.94850053","lng":"8.96556423"}},{"zip":"83626","cityData":{"country_code":"DE","postal_code":"83626","state":"Bayern","place_name":"Valley","lat":"47.88675181","lng":"11.76281729"}},{"zip":"26316","cityData":{"country_code":"DE","postal_code":"26316","state":"Niedersachsen","place_name":"Varel Neuenwege","lat":"53.38931598","lng":"8.11581435"}},{"zip":"85591","cityData":{"country_code":"DE","postal_code":"85591","state":"Bayern","place_name":"Vaterstetten","lat":"48.10828467","lng":"11.77933758"}},{"zip":"85598","cityData":{"country_code":"DE","postal_code":"85598","state":"Bayern","place_name":"Baldham","lat":"48.11615750","lng":"11.79549819"}},{"zip":"85599","cityData":{"country_code":"DE","postal_code":"85599","state":"Bayern","place_name":"Parsdorf","lat":"48.13591096","lng":"11.79036051"}},{"zip":"38159","cityData":{"country_code":"DE","postal_code":"38159","state":"Niedersachsen","place_name":"Vechelde","lat":"52.25323219","lng":"10.36592656"}},{"zip":"49377","cityData":{"country_code":"DE","postal_code":"49377","state":"Niedersachsen","place_name":"Vechta","lat":"52.74281161","lng":"8.28360069"}},{"zip":"98669","cityData":{"country_code":"DE","postal_code":"98669","state":"Thüringen","place_name":"Veilsdorf","lat":"50.41468749","lng":"10.81021597"}},{"zip":"97209","cityData":{"country_code":"DE","postal_code":"97209","state":"Bayern","place_name":"Veitshöchheim","lat":"49.84161843","lng":"9.88609339"}},{"zip":"42549","cityData":{"country_code":"DE","postal_code":"42549","state":"Nordrhein-Westfalen","place_name":"Velbert","lat":"51.33807171","lng":"7.02246790"}},{"zip":"42551","cityData":{"country_code":"DE","postal_code":"42551","state":"Nordrhein-Westfalen","place_name":"Velbert","lat":"51.35209225","lng":"7.06024465"}},{"zip":"42553","cityData":{"country_code":"DE","postal_code":"42553","state":"Nordrhein-Westfalen","place_name":"Velbert","lat":"51.31826370","lng":"7.10333042"}},{"zip":"42555","cityData":{"country_code":"DE","postal_code":"42555","state":"Nordrhein-Westfalen","place_name":"Velbert","lat":"51.35671692","lng":"7.12195757"}},{"zip":"92355","cityData":{"country_code":"DE","postal_code":"92355","state":"Bayern","place_name":"Velburg","lat":"49.26197335","lng":"11.67788814"}},{"zip":"84149","cityData":{"country_code":"DE","postal_code":"84149","state":"Bayern","place_name":"Velden","lat":"48.36820401","lng":"12.26615340"}},{"zip":"46342","cityData":{"country_code":"DE","postal_code":"46342","state":"Nordrhein-Westfalen","place_name":"Velen","lat":"51.89737944","lng":"6.95624397"}},{"zip":"74541","cityData":{"country_code":"DE","postal_code":"74541","state":"Baden-Württemberg","place_name":"Vellberg","lat":"49.10834622","lng":"9.90461476"}},{"zip":"34246","cityData":{"country_code":"DE","postal_code":"34246","state":"Hessen","place_name":"Vellmar","lat":"51.36452334","lng":"9.46396195"}},{"zip":"38458","cityData":{"country_code":"DE","postal_code":"38458","state":"Niedersachsen","place_name":"Velpke","lat":"52.41092024","lng":"10.94860185"}},{"zip":"27283","cityData":{"country_code":"DE","postal_code":"27283","state":"Niedersachsen","place_name":"Verden (Aller)","lat":"52.93951491","lng":"9.23658504"}},{"zip":"72519","cityData":{"country_code":"DE","postal_code":"72519","state":"Baden-Württemberg","place_name":"Veringenstadt","lat":"48.17864353","lng":"9.21278242"}},{"zip":"33415","cityData":{"country_code":"DE","postal_code":"33415","state":"Nordrhein-Westfalen","place_name":"Verl","lat":"51.87955504","lng":"8.52448780"}},{"zip":"33775","cityData":{"country_code":"DE","postal_code":"33775","state":"Nordrhein-Westfalen","place_name":"Versmold","lat":"52.04022426","lng":"8.17035772"}},{"zip":"91487","cityData":{"country_code":"DE","postal_code":"91487","state":"Bayern","place_name":"Vestenbergsgreuth","lat":"49.70387964","lng":"10.65724424"}},{"zip":"03226","cityData":{"country_code":"DE","postal_code":"03226","state":"Brandenburg","place_name":"Koßwig","lat":"51.77690000","lng":"14.02870000"}},{"zip":"52391","cityData":{"country_code":"DE","postal_code":"52391","state":"Nordrhein-Westfalen","place_name":"Vettweiß","lat":"50.74381902","lng":"6.60711917"}},{"zip":"94234","cityData":{"country_code":"DE","postal_code":"94234","state":"Bayern","place_name":"Viechtach","lat":"49.09085625","lng":"12.91221874"}},{"zip":"96191","cityData":{"country_code":"DE","postal_code":"96191","state":"Bayern","place_name":"Viereth-Trunstadt","lat":"49.92783333","lng":"10.75971439"}},{"zip":"21444","cityData":{"country_code":"DE","postal_code":"21444","state":"Niedersachsen","place_name":"Vierhöfen","lat":"53.26898119","lng":"10.22050333"}},{"zip":"85256","cityData":{"country_code":"DE","postal_code":"85256","state":"Bayern","place_name":"Vierkirchen","lat":"48.36723511","lng":"11.46760262"}},{"zip":"68519","cityData":{"country_code":"DE","postal_code":"68519","state":"Hessen","place_name":"Viernheim","lat":"49.55841749","lng":"8.56746093"}},{"zip":"41747","cityData":{"country_code":"DE","postal_code":"41747","state":"Nordrhein-Westfalen","place_name":"Viersen","lat":"51.25349125","lng":"6.38501792"}},{"zip":"41748","cityData":{"country_code":"DE","postal_code":"41748","state":"Nordrhein-Westfalen","place_name":"Viersen","lat":"51.24311365","lng":"6.40821736"}},{"zip":"41749","cityData":{"country_code":"DE","postal_code":"41749","state":"Nordrhein-Westfalen","place_name":"Viersen","lat":"51.29318545","lng":"6.36492444"}},{"zip":"41751","cityData":{"country_code":"DE","postal_code":"41751","state":"Nordrhein-Westfalen","place_name":"Viersen","lat":"51.25474371","lng":"6.32018404"}},{"zip":"86946","cityData":{"country_code":"DE","postal_code":"86946","state":"Bayern","place_name":"Vilgertshofen","lat":"47.95783330","lng":"10.91810957"}},{"zip":"78667","cityData":{"country_code":"DE","postal_code":"78667","state":"Baden-Württemberg","place_name":"Villingendorf","lat":"48.20316787","lng":"8.58543359"}},{"zip":"78048","cityData":{"country_code":"DE","postal_code":"78048","state":"Baden-Württemberg","place_name":"Villingen-Schwenningen","lat":"48.07647348","lng":"8.44249657"}},{"zip":"78050","cityData":{"country_code":"DE","postal_code":"78050","state":"Baden-Württemberg","place_name":"Villingen-Schwenningen","lat":"48.05766142","lng":"8.44139126"}},{"zip":"78052","cityData":{"country_code":"DE","postal_code":"78052","state":"Baden-Württemberg","place_name":"Villingen-Schwenningen","lat":"48.05427858","lng":"8.42370421"}},{"zip":"78054","cityData":{"country_code":"DE","postal_code":"78054","state":"Baden-Württemberg","place_name":"Villingen-Schwenningen","lat":"48.06587870","lng":"8.51866155"}},{"zip":"78056","cityData":{"country_code":"DE","postal_code":"78056","state":"Baden-Württemberg","place_name":"Villingen-Schwenningen","lat":"48.06117862","lng":"8.57407478"}},{"zip":"65606","cityData":{"country_code":"DE","postal_code":"65606","state":"Hessen","place_name":"Villmar","lat":"50.39734806","lng":"8.23120489"}},{"zip":"84137","cityData":{"country_code":"DE","postal_code":"84137","state":"Bayern","place_name":"Vilsbiburg","lat":"48.44183231","lng":"12.34379271"}},{"zip":"92249","cityData":{"country_code":"DE","postal_code":"92249","state":"Bayern","place_name":"Vilseck","lat":"49.61377497","lng":"11.79912775"}},{"zip":"84186","cityData":{"country_code":"DE","postal_code":"84186","state":"Bayern","place_name":"Vilsheim","lat":"48.44695320","lng":"12.11827923"}},{"zip":"94474","cityData":{"country_code":"DE","postal_code":"94474","state":"Bayern","place_name":"Vilshofen","lat":"48.61645887","lng":"13.18016281"}},{"zip":"49429","cityData":{"country_code":"DE","postal_code":"49429","state":"Niedersachsen","place_name":"Visbek","lat":"52.83395794","lng":"8.30951470"}},{"zip":"27374","cityData":{"country_code":"DE","postal_code":"27374","state":"Niedersachsen","place_name":"Visselhövede","lat":"52.99621741","lng":"9.55332215"}},{"zip":"32602","cityData":{"country_code":"DE","postal_code":"32602","state":"Nordrhein-Westfalen","place_name":"Vlotho","lat":"52.14959027","lng":"8.83442035"}},{"zip":"46562","cityData":{"country_code":"DE","postal_code":"46562","state":"Nordrhein-Westfalen","place_name":"Voerde","lat":"51.60189988","lng":"6.65063028"}},{"zip":"21360","cityData":{"country_code":"DE","postal_code":"21360","state":"Niedersachsen","place_name":"Vögelsen","lat":"53.28526531","lng":"10.33857622"}},{"zip":"88267","cityData":{"country_code":"DE","postal_code":"88267","state":"Baden-Württemberg","place_name":"Vogt","lat":"47.78223809","lng":"9.76660993"}},{"zip":"83569","cityData":{"country_code":"DE","postal_code":"83569","state":"Bayern","place_name":"Vogtareuth","lat":"47.93240483","lng":"12.17406092"}},{"zip":"79235","cityData":{"country_code":"DE","postal_code":"79235","state":"Baden-Württemberg","place_name":"Vogtsburg im Kaiserstuhl","lat":"48.09089051","lng":"7.63882805"}},{"zip":"85088","cityData":{"country_code":"DE","postal_code":"85088","state":"Bayern","place_name":"Vohburg an der Donau","lat":"48.76920479","lng":"11.60955701"}},{"zip":"92648","cityData":{"country_code":"DE","postal_code":"92648","state":"Bayern","place_name":"Vohenstrauß","lat":"49.62114278","lng":"12.32881117"}},{"zip":"34516","cityData":{"country_code":"DE","postal_code":"34516","state":"Hessen","place_name":"Vöhl","lat":"51.17829447","lng":"8.90297219"}},{"zip":"78147","cityData":{"country_code":"DE","postal_code":"78147","state":"Baden-Württemberg","place_name":"Vöhrenbach","lat":"48.02040027","lng":"8.29804997"}},{"zip":"89269","cityData":{"country_code":"DE","postal_code":"89269","state":"Bayern","place_name":"Vöhringen","lat":"48.29111962","lng":"10.08818138"}},{"zip":"72189","cityData":{"country_code":"DE","postal_code":"72189","state":"Baden-Württemberg","place_name":"Vöhringen","lat":"48.32519353","lng":"8.66375795"}},{"zip":"97332","cityData":{"country_code":"DE","postal_code":"97332","state":"Bayern","place_name":"Volkach","lat":"49.86564035","lng":"10.23802072"}},{"zip":"84106","cityData":{"country_code":"DE","postal_code":"84106","state":"Bayern","place_name":"Volkenschwand","lat":"48.60914721","lng":"11.86297440"}},{"zip":"78269","cityData":{"country_code":"DE","postal_code":"78269","state":"Baden-Württemberg","place_name":"Volkertshausen","lat":"47.82419791","lng":"8.87186371"}},{"zip":"66333","cityData":{"country_code":"DE","postal_code":"66333","state":"Saarland","place_name":"Völklingen","lat":"49.22003227","lng":"6.80530231"}},{"zip":"34471","cityData":{"country_code":"DE","postal_code":"34471","state":"Hessen","place_name":"Volkmarsen","lat":"51.41148268","lng":"9.10301438"}},{"zip":"76744","cityData":{"country_code":"DE","postal_code":"76744","state":"Rheinland-Pfalz","place_name":"Wörth am Rhein","lat":"49.03623340","lng":"8.19092464"}},{"zip":"49599","cityData":{"country_code":"DE","postal_code":"49599","state":"Niedersachsen","place_name":"Voltlage","lat":"52.43955275","lng":"7.73788838"}},{"zip":"38533","cityData":{"country_code":"DE","postal_code":"38533","state":"Niedersachsen","place_name":"Vordorf","lat":"52.37336197","lng":"10.50352389"}},{"zip":"91247","cityData":{"country_code":"DE","postal_code":"91247","state":"Bayern","place_name":"Vorra","lat":"49.56068954","lng":"11.48685693"}},{"zip":"79279","cityData":{"country_code":"DE","postal_code":"79279","state":"Baden-Württemberg","place_name":"Vörstetten","lat":"48.07009725","lng":"7.83927622"}},{"zip":"48691","cityData":{"country_code":"DE","postal_code":"48691","state":"Nordrhein-Westfalen","place_name":"Vreden","lat":"52.06497691","lng":"6.80716336"}},{"zip":"24369","cityData":{"country_code":"DE","postal_code":"24369","state":"Schleswig-Holstein","place_name":"Waabs","lat":"54.53106390","lng":"9.96646165"}},{"zip":"83666","cityData":{"country_code":"DE","postal_code":"83666","state":"Bayern","place_name":"Waakirchen","lat":"47.77429945","lng":"11.67371320"}},{"zip":"86875","cityData":{"country_code":"DE","postal_code":"86875","state":"Bayern","place_name":"Waal","lat":"47.98882253","lng":"10.78529242"}},{"zip":"34590","cityData":{"country_code":"DE","postal_code":"34590","state":"Hessen","place_name":"Wabern","lat":"51.09461605","lng":"9.35292650"}},{"zip":"96193","cityData":{"country_code":"DE","postal_code":"96193","state":"Bayern","place_name":"Wachenroth","lat":"49.75344988","lng":"10.71313487"}},{"zip":"53343","cityData":{"country_code":"DE","postal_code":"53343","state":"Nordrhein-Westfalen","place_name":"Wachtberg","lat":"50.62627913","lng":"7.11940709"}},{"zip":"47669","cityData":{"country_code":"DE","postal_code":"47669","state":"Nordrhein-Westfalen","place_name":"Wachtendonk","lat":"51.40029104","lng":"6.32664139"}},{"zip":"63607","cityData":{"country_code":"DE","postal_code":"63607","state":"Hessen","place_name":"Wächtersbach","lat":"50.27157370","lng":"9.27081745"}},{"zip":"92442","cityData":{"country_code":"DE","postal_code":"92442","state":"Bayern","place_name":"Wackersdorf","lat":"49.31467132","lng":"12.19281868"}},{"zip":"29496","cityData":{"country_code":"DE","postal_code":"29496","state":"Niedersachsen","place_name":"Waddeweitz Maddau","lat":"53.00466586","lng":"10.95456220"}},{"zip":"66687","cityData":{"country_code":"DE","postal_code":"66687","state":"Saarland","place_name":"Wadern","lat":"49.54053389","lng":"6.89124928"}},{"zip":"59329","cityData":{"country_code":"DE","postal_code":"59329","state":"Nordrhein-Westfalen","place_name":"Wadersloh","lat":"51.72523647","lng":"8.22548527"}},{"zip":"66787","cityData":{"country_code":"DE","postal_code":"66787","state":"Saarland","place_name":"Wadgassen","lat":"49.24562317","lng":"6.78240056"}},{"zip":"93494","cityData":{"country_code":"DE","postal_code":"93494","state":"Bayern","place_name":"Waffenbrunn","lat":"49.28569791","lng":"12.66651727"}},{"zip":"49419","cityData":{"country_code":"DE","postal_code":"49419","state":"Niedersachsen","place_name":"Wagenfeld","lat":"52.54673814","lng":"8.61789511"}},{"zip":"68753","cityData":{"country_code":"DE","postal_code":"68753","state":"Baden-Württemberg","place_name":"Waghäusel","lat":"49.23118999","lng":"8.53841773"}},{"zip":"23812","cityData":{"country_code":"DE","postal_code":"23812","state":"Schleswig-Holstein","place_name":"Wahlstedt","lat":"53.94177704","lng":"10.13236300"}},{"zip":"29399","cityData":{"country_code":"DE","postal_code":"29399","state":"Niedersachsen","place_name":"Wahrenholz","lat":"52.61068767","lng":"10.59587450"}},{"zip":"71332","cityData":{"country_code":"DE","postal_code":"71332","state":"Baden-Württemberg","place_name":"Waiblingen","lat":"48.82717875","lng":"9.30822749"}},{"zip":"71334","cityData":{"country_code":"DE","postal_code":"71334","state":"Baden-Württemberg","place_name":"Waiblingen","lat":"48.84143086","lng":"9.34268663"}},{"zip":"71336","cityData":{"country_code":"DE","postal_code":"71336","state":"Baden-Württemberg","place_name":"Waiblingen","lat":"48.87666689","lng":"9.32420128"}},{"zip":"74915","cityData":{"country_code":"DE","postal_code":"74915","state":"Baden-Württemberg","place_name":"Waibstadt","lat":"49.29427920","lng":"8.89591296"}},{"zip":"92726","cityData":{"country_code":"DE","postal_code":"92726","state":"Bayern","place_name":"Waidhaus","lat":"49.65739140","lng":"12.48242213"}},{"zip":"86579","cityData":{"country_code":"DE","postal_code":"86579","state":"Bayern","place_name":"Waidhofen","lat":"48.57840299","lng":"11.33746364"}},{"zip":"97534","cityData":{"country_code":"DE","postal_code":"97534","state":"Bayern","place_name":"Waigolshausen","lat":"49.95798003","lng":"10.13819958"}},{"zip":"88489","cityData":{"country_code":"DE","postal_code":"88489","state":"Baden-Württemberg","place_name":"Wain","lat":"48.18046321","lng":"10.02143762"}},{"zip":"91344","cityData":{"country_code":"DE","postal_code":"91344","state":"Bayern","place_name":"Waischenfeld","lat":"49.84910100","lng":"11.33087509"}},{"zip":"26907","cityData":{"country_code":"DE","postal_code":"26907","state":"Niedersachsen","place_name":"Walchum","lat":"52.93125792","lng":"7.23013834"}},{"zip":"93192","cityData":{"country_code":"DE","postal_code":"93192","state":"Bayern","place_name":"Wald","lat":"49.12765566","lng":"12.35044204"}},{"zip":"88639","cityData":{"country_code":"DE","postal_code":"88639","state":"Baden-Württemberg","place_name":"Wald","lat":"47.93326968","lng":"9.16673687"}},{"zip":"72178","cityData":{"country_code":"DE","postal_code":"72178","state":"Baden-Württemberg","place_name":"Waldachtal","lat":"48.48825996","lng":"8.58405461"}},{"zip":"55425","cityData":{"country_code":"DE","postal_code":"55425","state":"Rheinland-Pfalz","place_name":"Waldalgesheim","lat":"49.96087314","lng":"7.81508684"}},{"zip":"63857","cityData":{"country_code":"DE","postal_code":"63857","state":"Bayern","place_name":"Waldaschaff","lat":"49.97161830","lng":"9.30169117"}},{"zip":"56588","cityData":{"country_code":"DE","postal_code":"56588","state":"Rheinland-Pfalz","place_name":"Waldbreitbach","lat":"50.55307187","lng":"7.42230789"}},{"zip":"51545","cityData":{"country_code":"DE","postal_code":"51545","state":"Nordrhein-Westfalen","place_name":"Waldbröl","lat":"50.86861028","lng":"7.61176490"}},{"zip":"76337","cityData":{"country_code":"DE","postal_code":"76337","state":"Baden-Württemberg","place_name":"Waldbronn","lat":"48.92517697","lng":"8.47283381"}},{"zip":"97295","cityData":{"country_code":"DE","postal_code":"97295","state":"Bayern","place_name":"Waldbrunn","lat":"49.76188635","lng":"9.79213787"}},{"zip":"65620","cityData":{"country_code":"DE","postal_code":"65620","state":"Hessen","place_name":"Waldbrunn (Westerwald)","lat":"50.51197771","lng":"8.11407236"}},{"zip":"88289","cityData":{"country_code":"DE","postal_code":"88289","state":"Baden-Württemberg","place_name":"Waldburg","lat":"47.75789316","lng":"9.72212741"}},{"zip":"97297","cityData":{"country_code":"DE","postal_code":"97297","state":"Bayern","place_name":"Waldbüttelbrunn","lat":"49.78524349","lng":"9.80122253"}},{"zip":"72141","cityData":{"country_code":"DE","postal_code":"72141","state":"Baden-Württemberg","place_name":"Walddorfhäslach","lat":"48.59299480","lng":"9.16547965"}},{"zip":"65529","cityData":{"country_code":"DE","postal_code":"65529","state":"Hessen","place_name":"Waldems","lat":"50.25955124","lng":"8.34840283"}},{"zip":"74638","cityData":{"country_code":"DE","postal_code":"74638","state":"Baden-Württemberg","place_name":"Waldenburg","lat":"49.17043557","lng":"9.63772397"}},{"zip":"93194","cityData":{"country_code":"DE","postal_code":"93194","state":"Bayern","place_name":"Walderbach","lat":"49.19106052","lng":"12.39596175"}},{"zip":"95679","cityData":{"country_code":"DE","postal_code":"95679","state":"Bayern","place_name":"Waldershof","lat":"49.95411155","lng":"12.07409447"}},{"zip":"67714","cityData":{"country_code":"DE","postal_code":"67714","state":"Rheinland-Pfalz","place_name":"Waldfischbach-Burgalben","lat":"49.28461548","lng":"7.66748913"}},{"zip":"04736","cityData":{"country_code":"DE","postal_code":"04736","state":"Sachsen","place_name":"Waldheim","lat":"51.07280000","lng":"13.02000000"}},{"zip":"37284","cityData":{"country_code":"DE","postal_code":"37284","state":"Hessen","place_name":"Waldkappel","lat":"51.13348380","lng":"9.85543824"}},{"zip":"79183","cityData":{"country_code":"DE","postal_code":"79183","state":"Baden-Württemberg","place_name":"Waldkirch","lat":"48.08945141","lng":"7.97278388"}},{"zip":"94065","cityData":{"country_code":"DE","postal_code":"94065","state":"Bayern","place_name":"Waldkirchen","lat":"48.72963647","lng":"13.60468366"}},{"zip":"84478","cityData":{"country_code":"DE","postal_code":"84478","state":"Bayern","place_name":"Waldkraiburg","lat":"48.20291316","lng":"12.41709045"}},{"zip":"69483","cityData":{"country_code":"DE","postal_code":"69483","state":"Hessen","place_name":"Wald-Michelbach","lat":"49.55374178","lng":"8.84774875"}},{"zip":"66914","cityData":{"country_code":"DE","postal_code":"66914","state":"Rheinland-Pfalz","place_name":"Waldmohr","lat":"49.38475929","lng":"7.34931957"}},{"zip":"93449","cityData":{"country_code":"DE","postal_code":"93449","state":"Bayern","place_name":"Waldmünchen","lat":"49.36890504","lng":"12.69823609"}},{"zip":"54320","cityData":{"country_code":"DE","postal_code":"54320","state":"Rheinland-Pfalz","place_name":"Waldrach","lat":"49.74419836","lng":"6.76049971"}},{"zip":"95652","cityData":{"country_code":"DE","postal_code":"95652","state":"Bayern","place_name":"Waldsassen","lat":"50.01578610","lng":"12.31565541"}},{"zip":"67165","cityData":{"country_code":"DE","postal_code":"67165","state":"Rheinland-Pfalz","place_name":"Waldsee","lat":"49.39836376","lng":"8.45305751"}},{"zip":"79761","cityData":{"country_code":"DE","postal_code":"79761","state":"Baden-Württemberg","place_name":"Waldshut-Tiengen","lat":"47.65274981","lng":"8.24516499"}},{"zip":"35647","cityData":{"country_code":"DE","postal_code":"35647","state":"Hessen","place_name":"Waldsolms","lat":"50.43425719","lng":"8.49061506"}},{"zip":"89367","cityData":{"country_code":"DE","postal_code":"89367","state":"Bayern","place_name":"Waldstetten","lat":"48.35047093","lng":"10.28811345"}},{"zip":"92727","cityData":{"country_code":"DE","postal_code":"92727","state":"Bayern","place_name":"Waldthurn","lat":"49.68145972","lng":"12.33046834"}},{"zip":"74399","cityData":{"country_code":"DE","postal_code":"74399","state":"Baden-Württemberg","place_name":"Walheim","lat":"49.01431431","lng":"9.13582367"}},{"zip":"37445","cityData":{"country_code":"DE","postal_code":"37445","state":"Niedersachsen","place_name":"Walkenried","lat":"51.58111416","lng":"10.62541413"}},{"zip":"86877","cityData":{"country_code":"DE","postal_code":"86877","state":"Bayern","place_name":"Walkertshofen","lat":"48.23175720","lng":"10.58874005"}},{"zip":"69190","cityData":{"country_code":"DE","postal_code":"69190","state":"Baden-Württemberg","place_name":"Walldorf","lat":"49.30275614","lng":"8.63382722"}},{"zip":"96346","cityData":{"country_code":"DE","postal_code":"96346","state":"Bayern","place_name":"Wallenfels","lat":"50.28020912","lng":"11.50434853"}},{"zip":"49134","cityData":{"country_code":"DE","postal_code":"49134","state":"Niedersachsen","place_name":"Wallenhorst","lat":"52.34705982","lng":"8.02252745"}},{"zip":"66798","cityData":{"country_code":"DE","postal_code":"66798","state":"Saarland","place_name":"Wallerfangen","lat":"49.31833679","lng":"6.66573568"}},{"zip":"94574","cityData":{"country_code":"DE","postal_code":"94574","state":"Bayern","place_name":"Wallerfing","lat":"48.68810730","lng":"12.87254491"}},{"zip":"94522","cityData":{"country_code":"DE","postal_code":"94522","state":"Bayern","place_name":"Wallersdorf","lat":"48.73524844","lng":"12.74986005"}},{"zip":"86757","cityData":{"country_code":"DE","postal_code":"86757","state":"Bayern","place_name":"Wallerstein","lat":"48.89164749","lng":"10.47202944"}},{"zip":"82499","cityData":{"country_code":"DE","postal_code":"82499","state":"Bayern","place_name":"Wallgau","lat":"47.54383580","lng":"11.27587914"}},{"zip":"74599","cityData":{"country_code":"DE","postal_code":"74599","state":"Baden-Württemberg","place_name":"Wallhausen","lat":"49.22558880","lng":"10.08530979"}},{"zip":"65396","cityData":{"country_code":"DE","postal_code":"65396","state":"Hessen","place_name":"Walluf","lat":"50.04688632","lng":"8.15135761"}},{"zip":"85469","cityData":{"country_code":"DE","postal_code":"85469","state":"Bayern","place_name":"Walpertskirchen","lat":"48.26060790","lng":"11.97884402"}},{"zip":"96194","cityData":{"country_code":"DE","postal_code":"96194","state":"Bayern","place_name":"Walsdorf","lat":"49.87961096","lng":"10.77237509"}},{"zip":"29699","cityData":{"country_code":"DE","postal_code":"29699","state":"Niedersachsen","place_name":"Bomlitz","lat":"52.92359410","lng":"9.65427501"}},{"zip":"87448","cityData":{"country_code":"DE","postal_code":"87448","state":"Bayern","place_name":"Waltenhofen","lat":"47.65453771","lng":"10.25977983"}},{"zip":"85137","cityData":{"country_code":"DE","postal_code":"85137","state":"Bayern","place_name":"Walting","lat":"48.91837391","lng":"11.30004989"}},{"zip":"45731","cityData":{"country_code":"DE","postal_code":"45731","state":"Nordrhein-Westfalen","place_name":"Waltrop","lat":"51.62443359","lng":"7.39769051"}},{"zip":"75045","cityData":{"country_code":"DE","postal_code":"75045","state":"Baden-Württemberg","place_name":"Walzbachtal","lat":"49.02323265","lng":"8.60426102"}},{"zip":"24997","cityData":{"country_code":"DE","postal_code":"24997","state":"Schleswig-Holstein","place_name":"Wanderup","lat":"54.68527033","lng":"9.31608182"}},{"zip":"37281","cityData":{"country_code":"DE","postal_code":"37281","state":"Hessen","place_name":"Wanfried","lat":"51.17160952","lng":"10.16942095"}},{"zip":"73117","cityData":{"country_code":"DE","postal_code":"73117","state":"Baden-Württemberg","place_name":"Wangen","lat":"48.73513110","lng":"9.60366235"}},{"zip":"88239","cityData":{"country_code":"DE","postal_code":"88239","state":"Baden-Württemberg","place_name":"Wangen im Allgäu","lat":"47.69526236","lng":"9.80632844"}},{"zip":"26434","cityData":{"country_code":"DE","postal_code":"26434","state":"Niedersachsen","place_name":"Wangerland Hohenkirchen","lat":"53.65767946","lng":"7.93316265"}},{"zip":"26486","cityData":{"country_code":"DE","postal_code":"26486","state":"Niedersachsen","place_name":"Wangerooge","lat":"53.78955092","lng":"7.91140916"}},{"zip":"21776","cityData":{"country_code":"DE","postal_code":"21776","state":"Niedersachsen","place_name":"Wanna","lat":"53.72659058","lng":"8.77977420"}},{"zip":"72827","cityData":{"country_code":"DE","postal_code":"72827","state":"Baden-Württemberg","place_name":"Wannweil","lat":"48.51459497","lng":"9.15226238"}},{"zip":"39164","cityData":{"country_code":"DE","postal_code":"39164","state":"Sachsen-Anhalt","place_name":"Klein Wanzleben","lat":"52.06580552","lng":"11.42103222"}},{"zip":"38378","cityData":{"country_code":"DE","postal_code":"38378","state":"Niedersachsen","place_name":"Warberg","lat":"52.18102595","lng":"10.92313738"}},{"zip":"34414","cityData":{"country_code":"DE","postal_code":"34414","state":"Nordrhein-Westfalen","place_name":"Warburg","lat":"51.51689864","lng":"9.09389679"}},{"zip":"26203","cityData":{"country_code":"DE","postal_code":"26203","state":"Niedersachsen","place_name":"Wardenburg","lat":"53.05451035","lng":"8.15459975"}},{"zip":"24646","cityData":{"country_code":"DE","postal_code":"24646","state":"Schleswig-Holstein","place_name":"Warder","lat":"54.21705533","lng":"9.88375686"}},{"zip":"48231","cityData":{"country_code":"DE","postal_code":"48231","state":"Nordrhein-Westfalen","place_name":"Warendorf","lat":"51.95041808","lng":"7.95732689"}},{"zip":"95485","cityData":{"country_code":"DE","postal_code":"95485","state":"Bayern","place_name":"Warmensteinach","lat":"50.00126718","lng":"11.79031975"}},{"zip":"31606","cityData":{"country_code":"DE","postal_code":"31606","state":"Niedersachsen","place_name":"Warmsen","lat":"52.44126645","lng":"8.83657429"}},{"zip":"83627","cityData":{"country_code":"DE","postal_code":"83627","state":"Bayern","place_name":"Warngau","lat":"47.81953130","lng":"11.73719626"}},{"zip":"59581","cityData":{"country_code":"DE","postal_code":"59581","state":"Nordrhein-Westfalen","place_name":"Warstein","lat":"51.45657522","lng":"8.29608314"}},{"zip":"36367","cityData":{"country_code":"DE","postal_code":"36367","state":"Hessen","place_name":"Wartenberg","lat":"50.61940168","lng":"9.45451593"}},{"zip":"85456","cityData":{"country_code":"DE","postal_code":"85456","state":"Bayern","place_name":"Wartenberg","lat":"48.39562137","lng":"11.98295830"}},{"zip":"88447","cityData":{"country_code":"DE","postal_code":"88447","state":"Baden-Württemberg","place_name":"Warthausen","lat":"48.13645661","lng":"9.78181374"}},{"zip":"97797","cityData":{"country_code":"DE","postal_code":"97797","state":"Bayern","place_name":"Wartmannsroth","lat":"50.16922318","lng":"9.79045102"}},{"zip":"38553","cityData":{"country_code":"DE","postal_code":"38553","state":"Niedersachsen","place_name":"Wasbüttel","lat":"52.41389631","lng":"10.59255214"}},{"zip":"41849","cityData":{"country_code":"DE","postal_code":"41849","state":"Nordrhein-Westfalen","place_name":"Wassenberg","lat":"51.11323046","lng":"6.14512071"}},{"zip":"83512","cityData":{"country_code":"DE","postal_code":"83512","state":"Bayern","place_name":"Wasserburg am Inn","lat":"48.05532059","lng":"12.19653735"}},{"zip":"88142","cityData":{"country_code":"DE","postal_code":"88142","state":"Bayern","place_name":"Wasserburg (Bodensee)","lat":"47.58010502","lng":"9.63993853"}},{"zip":"54332","cityData":{"country_code":"DE","postal_code":"54332","state":"Rheinland-Pfalz","place_name":"Wasserliesch","lat":"49.69539126","lng":"6.53680755"}},{"zip":"97535","cityData":{"country_code":"DE","postal_code":"97535","state":"Bayern","place_name":"Wasserlosen","lat":"50.07052345","lng":"10.02581479"}},{"zip":"91717","cityData":{"country_code":"DE","postal_code":"91717","state":"Bayern","place_name":"Wassertrüdingen","lat":"49.04100262","lng":"10.60654468"}},{"zip":"29339","cityData":{"country_code":"DE","postal_code":"29339","state":"Niedersachsen","place_name":"Wathlingen","lat":"52.52738531","lng":"10.14345750"}},{"zip":"96196","cityData":{"country_code":"DE","postal_code":"96196","state":"Bayern","place_name":"Wattendorf","lat":"50.03324921","lng":"11.13880099"}},{"zip":"67319","cityData":{"country_code":"DE","postal_code":"67319","state":"Rheinland-Pfalz","place_name":"Wattenheim","lat":"49.50400359","lng":"8.02526664"}},{"zip":"86759","cityData":{"country_code":"DE","postal_code":"86759","state":"Bayern","place_name":"Wechingen","lat":"48.88452726","lng":"10.62111623"}},{"zip":"22880","cityData":{"country_code":"DE","postal_code":"22880","state":"Schleswig-Holstein","place_name":"Wedel","lat":"53.59182253","lng":"9.70351197"}},{"zip":"30900","cityData":{"country_code":"DE","postal_code":"30900","state":"Niedersachsen","place_name":"Wedemark","lat":"52.55943877","lng":"9.70813724"}},{"zip":"26826","cityData":{"country_code":"DE","postal_code":"26826","state":"Niedersachsen","place_name":"Weener","lat":"53.16552655","lng":"7.33280096"}},{"zip":"24999","cityData":{"country_code":"DE","postal_code":"24999","state":"Schleswig-Holstein","place_name":"Wees","lat":"54.80855278","lng":"9.53498489"}},{"zip":"47652","cityData":{"country_code":"DE","postal_code":"47652","state":"Nordrhein-Westfalen","place_name":"Weeze","lat":"51.62063977","lng":"6.18059191"}},{"zip":"41844","cityData":{"country_code":"DE","postal_code":"41844","state":"Nordrhein-Westfalen","place_name":"Wegberg","lat":"51.14340585","lng":"6.24885812"}},{"zip":"38828","cityData":{"country_code":"DE","postal_code":"38828","state":"Sachsen-Anhalt","place_name":"Wegeleben","lat":"51.88611931","lng":"11.19178083"}},{"zip":"94110","cityData":{"country_code":"DE","postal_code":"94110","state":"Bayern","place_name":"Wegscheid","lat":"48.61727965","lng":"13.76467938"}},{"zip":"01829","cityData":{"country_code":"DE","postal_code":"01829","state":"Sachsen","place_name":"Stadt Wehlen","lat":"50.95820000","lng":"14.03090000"}},{"zip":"79664","cityData":{"country_code":"DE","postal_code":"79664","state":"Baden-Württemberg","place_name":"Wehr","lat":"47.62656118","lng":"7.91964133"}},{"zip":"37287","cityData":{"country_code":"DE","postal_code":"37287","state":"Hessen","place_name":"Wehretal","lat":"51.14669207","lng":"9.99349175"}},{"zip":"86517","cityData":{"country_code":"DE","postal_code":"86517","state":"Bayern","place_name":"Wehringen","lat":"48.25140674","lng":"10.80556473"}},{"zip":"63879","cityData":{"country_code":"DE","postal_code":"63879","state":"Bayern","place_name":"Weibersbrunn","lat":"49.92712600","lng":"9.37190882"}},{"zip":"86706","cityData":{"country_code":"DE","postal_code":"86706","state":"Bayern","place_name":"Weichering","lat":"48.70980202","lng":"11.32544460"}},{"zip":"85258","cityData":{"country_code":"DE","postal_code":"85258","state":"Bayern","place_name":"Weichs","lat":"48.38988227","lng":"11.41686880"}},{"zip":"91746","cityData":{"country_code":"DE","postal_code":"91746","state":"Bayern","place_name":"Weidenbach","lat":"49.21180803","lng":"10.62785303"}},{"zip":"89197","cityData":{"country_code":"DE","postal_code":"89197","state":"Baden-Württemberg","place_name":"Weidenstetten","lat":"48.55975178","lng":"9.97814038"}},{"zip":"67475","cityData":{"country_code":"DE","postal_code":"67475","state":"Rheinland-Pfalz","place_name":"Weidenthal","lat":"49.40721069","lng":"7.98966580"}},{"zip":"96279","cityData":{"country_code":"DE","postal_code":"96279","state":"Bayern","place_name":"Weidhausen bei Coburg","lat":"50.20523517","lng":"11.15380629"}},{"zip":"93495","cityData":{"country_code":"DE","postal_code":"93495","state":"Bayern","place_name":"Weiding","lat":"49.26816073","lng":"12.74952799"}},{"zip":"92557","cityData":{"country_code":"DE","postal_code":"92557","state":"Bayern","place_name":"Weiding","lat":"49.48168081","lng":"12.56384493"}},{"zip":"91249","cityData":{"country_code":"DE","postal_code":"91249","state":"Bayern","place_name":"Weigendorf","lat":"49.50165656","lng":"11.58590462"}},{"zip":"91629","cityData":{"country_code":"DE","postal_code":"91629","state":"Bayern","place_name":"Weihenzell","lat":"49.35841495","lng":"10.62247935"}},{"zip":"92700","cityData":{"country_code":"DE","postal_code":"92700","state":"Bayern","place_name":"Kaltenbrunn, Oberpfalz","lat":"49.66207874","lng":"11.93377892"}},{"zip":"92729","cityData":{"country_code":"DE","postal_code":"92729","state":"Bayern","place_name":"Weiherhammer","lat":"49.63928319","lng":"12.02757320"}},{"zip":"84107","cityData":{"country_code":"DE","postal_code":"84107","state":"Bayern","place_name":"Weihmichl","lat":"48.61804656","lng":"12.01997865"}},{"zip":"97990","cityData":{"country_code":"DE","postal_code":"97990","state":"Baden-Württemberg","place_name":"Weikersheim","lat":"49.48340480","lng":"9.91030734"}},{"zip":"86947","cityData":{"country_code":"DE","postal_code":"86947","state":"Bayern","place_name":"Weil","lat":"48.12650154","lng":"10.94697081"}},{"zip":"79576","cityData":{"country_code":"DE","postal_code":"79576","state":"Baden-Württemberg","place_name":"Weil am Rhein","lat":"47.60675440","lng":"7.61411584"}},{"zip":"36457","cityData":{"country_code":"DE","postal_code":"36457","state":"Thüringen","place_name":"Urnshausen","lat":"50.76301399","lng":"10.13704734"}},{"zip":"63937","cityData":{"country_code":"DE","postal_code":"63937","state":"Bayern","place_name":"Weilbach","lat":"49.67358944","lng":"9.16827352"}},{"zip":"35781","cityData":{"country_code":"DE","postal_code":"35781","state":"Hessen","place_name":"Weilburg","lat":"50.48506964","lng":"8.26686412"}},{"zip":"71263","cityData":{"country_code":"DE","postal_code":"71263","state":"Baden-Württemberg","place_name":"Weil der Stadt","lat":"48.76036878","lng":"8.86616602"}},{"zip":"72367","cityData":{"country_code":"DE","postal_code":"72367","state":"Baden-Württemberg","place_name":"Weilen unter den Rinnen","lat":"48.19130732","lng":"8.77579720"}},{"zip":"91365","cityData":{"country_code":"DE","postal_code":"91365","state":"Bayern","place_name":"Weilersbach","lat":"49.75327302","lng":"11.13304257"}},{"zip":"88171","cityData":{"country_code":"DE","postal_code":"88171","state":"Bayern","place_name":"Weiler-Simmerberg","lat":"47.57722859","lng":"9.91578438"}},{"zip":"53919","cityData":{"country_code":"DE","postal_code":"53919","state":"Nordrhein-Westfalen","place_name":"Weilerswist","lat":"50.73190633","lng":"6.83922122"}},{"zip":"79809","cityData":{"country_code":"DE","postal_code":"79809","state":"Baden-Württemberg","place_name":"Weilheim","lat":"47.68024883","lng":"8.19808240"}},{"zip":"73235","cityData":{"country_code":"DE","postal_code":"73235","state":"Baden-Württemberg","place_name":"Weilheim an der Teck","lat":"48.61021728","lng":"9.54695653"}},{"zip":"82362","cityData":{"country_code":"DE","postal_code":"82362","state":"Bayern","place_name":"Weilheim in Oberbayern","lat":"47.84461372","lng":"11.14778410"}},{"zip":"71093","cityData":{"country_code":"DE","postal_code":"71093","state":"Baden-Württemberg","place_name":"Weil im Schönbuch","lat":"48.61948277","lng":"9.06199126"}},{"zip":"35789","cityData":{"country_code":"DE","postal_code":"35789","state":"Hessen","place_name":"Weilmünster","lat":"50.42524334","lng":"8.36922201"}},{"zip":"61276","cityData":{"country_code":"DE","postal_code":"61276","state":"Hessen","place_name":"Weilrod","lat":"50.33271290","lng":"8.39211772"}},{"zip":"91744","cityData":{"country_code":"DE","postal_code":"91744","state":"Bayern","place_name":"Weiltingen","lat":"49.03042457","lng":"10.45074193"}},{"zip":"99423","cityData":{"country_code":"DE","postal_code":"99423","state":"Thüringen","place_name":"Weimar","lat":"50.98405527","lng":"11.32645510"}},{"zip":"99425","cityData":{"country_code":"DE","postal_code":"99425","state":"Thüringen","place_name":"Weimar","lat":"50.96748652","lng":"11.34817738"}},{"zip":"99427","cityData":{"country_code":"DE","postal_code":"99427","state":"Thüringen","place_name":"Weimar","lat":"51.01274350","lng":"11.30562838"}},{"zip":"35096","cityData":{"country_code":"DE","postal_code":"35096","state":"Hessen","place_name":"Weimar","lat":"50.75400092","lng":"8.69672616"}},{"zip":"35796","cityData":{"country_code":"DE","postal_code":"35796","state":"Hessen","place_name":"Weinbach","lat":"50.43684724","lng":"8.28835776"}},{"zip":"76356","cityData":{"country_code":"DE","postal_code":"76356","state":"Baden-Württemberg","place_name":"Weingarten","lat":"49.05843182","lng":"8.53657397"}},{"zip":"88250","cityData":{"country_code":"DE","postal_code":"88250","state":"Baden-Württemberg","place_name":"Weingarten","lat":"47.80969990","lng":"9.63878136"}},{"zip":"67366","cityData":{"country_code":"DE","postal_code":"67366","state":"Rheinland-Pfalz","place_name":"Weingarten","lat":"49.26646231","lng":"8.30029231"}},{"zip":"69469","cityData":{"country_code":"DE","postal_code":"69469","state":"Baden-Württemberg","place_name":"Weinheim","lat":"49.54108703","lng":"8.67751502"}},{"zip":"74189","cityData":{"country_code":"DE","postal_code":"74189","state":"Baden-Württemberg","place_name":"Weinsberg","lat":"49.15588173","lng":"9.29986671"}},{"zip":"71384","cityData":{"country_code":"DE","postal_code":"71384","state":"Baden-Württemberg","place_name":"Weinstadt","lat":"48.79958863","lng":"9.38943757"}},{"zip":"08538","cityData":{"country_code":"DE","postal_code":"08538","state":"Sachsen","place_name":"Burgstein","lat":"50.41670000","lng":"12.01670000"}},{"zip":"76599","cityData":{"country_code":"DE","postal_code":"76599","state":"Baden-Württemberg","place_name":"Weisenbach","lat":"48.71870576","lng":"8.35850634"}},{"zip":"91085","cityData":{"country_code":"DE","postal_code":"91085","state":"Bayern","place_name":"Weisendorf","lat":"49.62871092","lng":"10.81360725"}},{"zip":"67256","cityData":{"country_code":"DE","postal_code":"67256","state":"Rheinland-Pfalz","place_name":"Weisenheim am Sand","lat":"49.50314860","lng":"8.21632995"}},{"zip":"66709","cityData":{"country_code":"DE","postal_code":"66709","state":"Saarland","place_name":"Weiskirchen","lat":"49.54817109","lng":"6.81443464"}},{"zip":"96260","cityData":{"country_code":"DE","postal_code":"96260","state":"Bayern","place_name":"Weismain","lat":"50.06093874","lng":"11.24192073"}},{"zip":"71287","cityData":{"country_code":"DE","postal_code":"71287","state":"Baden-Württemberg","place_name":"Weissach","lat":"48.84240862","lng":"8.92037707"}},{"zip":"71554","cityData":{"country_code":"DE","postal_code":"71554","state":"Baden-Württemberg","place_name":"Weissach im Tal","lat":"48.92373150","lng":"9.49571994"}},{"zip":"74679","cityData":{"country_code":"DE","postal_code":"74679","state":"Baden-Württemberg","place_name":"Weißbach","lat":"49.31471463","lng":"9.60098743"}},{"zip":"95237","cityData":{"country_code":"DE","postal_code":"95237","state":"Bayern","place_name":"Weißdorf","lat":"50.18434917","lng":"11.86348845"}},{"zip":"37299","cityData":{"country_code":"DE","postal_code":"37299","state":"Hessen","place_name":"Weißenborn","lat":"51.11935346","lng":"10.12497391"}},{"zip":"91781","cityData":{"country_code":"DE","postal_code":"91781","state":"Bayern","place_name":"Weißenburg in Bayern","lat":"49.01482118","lng":"10.98507172"}},{"zip":"07950","cityData":{"country_code":"DE","postal_code":"07950","state":"Thüringen","place_name":"Wiebelsdorf","lat":"50.71580000","lng":"11.94950000"}},{"zip":"06688","cityData":{"country_code":"DE","postal_code":"06688","state":"Sachsen-Anhalt","place_name":"Wengelsdorf","lat":"51.28110000","lng":"12.04230000"}},{"zip":"89264","cityData":{"country_code":"DE","postal_code":"89264","state":"Bayern","place_name":"Weißenhorn","lat":"48.30472489","lng":"10.17182370"}},{"zip":"91367","cityData":{"country_code":"DE","postal_code":"91367","state":"Bayern","place_name":"Weißenohe","lat":"49.62622114","lng":"11.27079757"}},{"zip":"95163","cityData":{"country_code":"DE","postal_code":"95163","state":"Bayern","place_name":"Weißenstadt","lat":"50.10912476","lng":"11.88866394"}},{"zip":"56575","cityData":{"country_code":"DE","postal_code":"56575","state":"Rheinland-Pfalz","place_name":"Weißenthurm","lat":"50.41505854","lng":"7.45500427"}},{"zip":"79367","cityData":{"country_code":"DE","postal_code":"79367","state":"Baden-Württemberg","place_name":"Weisweil","lat":"48.20096622","lng":"7.67934389"}},{"zip":"57586","cityData":{"country_code":"DE","postal_code":"57586","state":"Rheinland-Pfalz","place_name":"Weitefeld","lat":"50.72609088","lng":"7.92894057"}},{"zip":"56191","cityData":{"country_code":"DE","postal_code":"56191","state":"Rheinland-Pfalz","place_name":"Weitersburg","lat":"50.41855661","lng":"7.61998193"}},{"zip":"64331","cityData":{"country_code":"DE","postal_code":"64331","state":"Hessen","place_name":"Weiterstadt","lat":"49.91741420","lng":"8.59382871"}},{"zip":"87480","cityData":{"country_code":"DE","postal_code":"87480","state":"Bayern","place_name":"Weitnau","lat":"47.66112563","lng":"10.14857767"}},{"zip":"96479","cityData":{"country_code":"DE","postal_code":"96479","state":"Bayern","place_name":"Weitramsdorf","lat":"50.24725582","lng":"10.87302010"}},{"zip":"21261","cityData":{"country_code":"DE","postal_code":"21261","state":"Niedersachsen","place_name":"Welle","lat":"53.23576395","lng":"9.79531512"}},{"zip":"78669","cityData":{"country_code":"DE","postal_code":"78669","state":"Baden-Württemberg","place_name":"Wellendingen","lat":"48.15522657","lng":"8.71320275"}},{"zip":"91809","cityData":{"country_code":"DE","postal_code":"91809","state":"Bayern","place_name":"Wellheim","lat":"48.81680532","lng":"11.09768318"}},{"zip":"59514","cityData":{"country_code":"DE","postal_code":"59514","state":"Nordrhein-Westfalen","place_name":"Welver","lat":"51.61748917","lng":"7.99176237"}},{"zip":"03119","cityData":{"country_code":"DE","postal_code":"03119","state":"Brandenburg","place_name":"Welzow","lat":"51.58380000","lng":"14.17080000"}},{"zip":"86650","cityData":{"country_code":"DE","postal_code":"86650","state":"Bayern","place_name":"Wemding","lat":"48.87958961","lng":"10.70670075"}},{"zip":"38176","cityData":{"country_code":"DE","postal_code":"38176","state":"Niedersachsen","place_name":"Wendeburg","lat":"52.33183033","lng":"10.37280576"}},{"zip":"90530","cityData":{"country_code":"DE","postal_code":"90530","state":"Bayern","place_name":"Wendelstein","lat":"49.34718729","lng":"11.16615113"}},{"zip":"57482","cityData":{"country_code":"DE","postal_code":"57482","state":"Nordrhein-Westfalen","place_name":"Wenden","lat":"50.96392786","lng":"7.86344844"}},{"zip":"21403","cityData":{"country_code":"DE","postal_code":"21403","state":"Niedersachsen","place_name":"Wendisch Evern","lat":"53.21246271","lng":"10.47548956"}},{"zip":"73240","cityData":{"country_code":"DE","postal_code":"73240","state":"Baden-Württemberg","place_name":"Wendlingen am Neckar","lat":"48.66987319","lng":"9.39023325"}},{"zip":"84187","cityData":{"country_code":"DE","postal_code":"84187","state":"Bayern","place_name":"Weng","lat":"48.66596086","lng":"12.36316424"}},{"zip":"30974","cityData":{"country_code":"DE","postal_code":"30974","state":"Niedersachsen","place_name":"Wennigsen","lat":"52.26186269","lng":"9.57512812"}},{"zip":"25996","cityData":{"country_code":"DE","postal_code":"25996","state":"Schleswig-Holstein","place_name":"Wenningstedt","lat":"54.93724032","lng":"8.34075278"}},{"zip":"93173","cityData":{"country_code":"DE","postal_code":"93173","state":"Bayern","place_name":"Wenzenbach","lat":"49.07527383","lng":"12.17526715"}},{"zip":"97956","cityData":{"country_code":"DE","postal_code":"97956","state":"Baden-Württemberg","place_name":"Werbach","lat":"49.69031783","lng":"9.65617851"}},{"zip":"08412","cityData":{"country_code":"DE","postal_code":"08412","state":"Sachsen","place_name":"Werdau","lat":"50.73600000","lng":"12.37530000"}},{"zip":"14542","cityData":{"country_code":"DE","postal_code":"14542","state":"Brandenburg","place_name":"Kloster Lehnin","lat":"52.36934287","lng":"12.88335158"}},{"zip":"58791","cityData":{"country_code":"DE","postal_code":"58791","state":"Nordrhein-Westfalen","place_name":"Werdohl","lat":"51.25658853","lng":"7.74624537"}},{"zip":"59457","cityData":{"country_code":"DE","postal_code":"59457","state":"Nordrhein-Westfalen","place_name":"Werl","lat":"51.55648730","lng":"7.90534818"}},{"zip":"42929","cityData":{"country_code":"DE","postal_code":"42929","state":"Nordrhein-Westfalen","place_name":"Wermelskirchen","lat":"51.11410768","lng":"7.21920971"}},{"zip":"04779","cityData":{"country_code":"DE","postal_code":"04779","state":"Sachsen","place_name":"Wermsdorf","lat":"51.28330000","lng":"12.95000000"}},{"zip":"73249","cityData":{"country_code":"DE","postal_code":"73249","state":"Baden-Württemberg","place_name":"Wernau","lat":"48.69029496","lng":"9.41982231"}},{"zip":"92533","cityData":{"country_code":"DE","postal_code":"92533","state":"Bayern","place_name":"Wernberg-Köblitz","lat":"49.54147995","lng":"12.16255679"}},{"zip":"59368","cityData":{"country_code":"DE","postal_code":"59368","state":"Nordrhein-Westfalen","place_name":"Werne","lat":"51.67929444","lng":"7.62412426"}},{"zip":"97440","cityData":{"country_code":"DE","postal_code":"97440","state":"Bayern","place_name":"Werneck","lat":"49.99326347","lng":"10.08271706"}},{"zip":"38879","cityData":{"country_code":"DE","postal_code":"38879","state":"Sachsen-Anhalt","place_name":"Schierke","lat":"51.78730928","lng":"10.62957518"}},{"zip":"99837","cityData":{"country_code":"DE","postal_code":"99837","state":"Thüringen","place_name":"Großensee","lat":"50.92447061","lng":"10.08638853"}},{"zip":"87497","cityData":{"country_code":"DE","postal_code":"87497","state":"Bayern","place_name":"Wertach","lat":"47.59150759","lng":"10.40935182"}},{"zip":"97877","cityData":{"country_code":"DE","postal_code":"97877","state":"Baden-Württemberg","place_name":"Wertheim","lat":"49.74426467","lng":"9.52198450"}},{"zip":"33824","cityData":{"country_code":"DE","postal_code":"33824","state":"Nordrhein-Westfalen","place_name":"Werther","lat":"52.08478355","lng":"8.41569059"}},{"zip":"46483","cityData":{"country_code":"DE","postal_code":"46483","state":"Nordrhein-Westfalen","place_name":"Wesel","lat":"51.66416295","lng":"6.61209537"}},{"zip":"46485","cityData":{"country_code":"DE","postal_code":"46485","state":"Nordrhein-Westfalen","place_name":"Wesel","lat":"51.66355589","lng":"6.65656722"}},{"zip":"46487","cityData":{"country_code":"DE","postal_code":"46487","state":"Nordrhein-Westfalen","place_name":"Wesel","lat":"51.67439143","lng":"6.53900795"}},{"zip":"29392","cityData":{"country_code":"DE","postal_code":"29392","state":"Niedersachsen","place_name":"Wesendorf","lat":"52.58840792","lng":"10.53151247"}},{"zip":"34399","cityData":{"country_code":"DE","postal_code":"34399","state":"Hessen","place_name":"Oberweser","lat":"51.59121584","lng":"9.60152993"}},{"zip":"50389","cityData":{"country_code":"DE","postal_code":"50389","state":"Nordrhein-Westfalen","place_name":"Wesseling","lat":"50.81776327","lng":"6.98070930"}},{"zip":"82234","cityData":{"country_code":"DE","postal_code":"82234","state":"Bayern","place_name":"Weßling","lat":"48.07518965","lng":"11.26378051"}},{"zip":"82405","cityData":{"country_code":"DE","postal_code":"82405","state":"Bayern","place_name":"Wessobrunn","lat":"47.86425842","lng":"11.02530576"}},{"zip":"29599","cityData":{"country_code":"DE","postal_code":"29599","state":"Niedersachsen","place_name":"Weste","lat":"53.05453915","lng":"10.69342290"}},{"zip":"87679","cityData":{"country_code":"DE","postal_code":"87679","state":"Bayern","place_name":"Westendorf","lat":"47.92431529","lng":"10.70979404"}},{"zip":"24259","cityData":{"country_code":"DE","postal_code":"24259","state":"Schleswig-Holstein","place_name":"Westensee","lat":"54.27755190","lng":"9.90364288"}},{"zip":"87784","cityData":{"country_code":"DE","postal_code":"87784","state":"Bayern","place_name":"Westerheim","lat":"48.02289695","lng":"10.29882664"}},{"zip":"72589","cityData":{"country_code":"DE","postal_code":"72589","state":"Baden-Württemberg","place_name":"Westerheim","lat":"48.51661854","lng":"9.61553913"}},{"zip":"49492","cityData":{"country_code":"DE","postal_code":"49492","state":"Nordrhein-Westfalen","place_name":"Westerkappeln","lat":"52.32035418","lng":"7.85838979"}},{"zip":"24784","cityData":{"country_code":"DE","postal_code":"24784","state":"Schleswig-Holstein","place_name":"Westerrönfeld","lat":"54.27475551","lng":"9.65491557"}},{"zip":"26655","cityData":{"country_code":"DE","postal_code":"26655","state":"Niedersachsen","place_name":"Westerstede","lat":"53.26414906","lng":"7.92300775"}},{"zip":"89198","cityData":{"country_code":"DE","postal_code":"89198","state":"Baden-Württemberg","place_name":"Westerstetten","lat":"48.51666136","lng":"9.94728929"}},{"zip":"73463","cityData":{"country_code":"DE","postal_code":"73463","state":"Baden-Württemberg","place_name":"Westhausen","lat":"48.88860503","lng":"10.20862935"}},{"zip":"91747","cityData":{"country_code":"DE","postal_code":"91747","state":"Bayern","place_name":"Westheim","lat":"49.00155235","lng":"10.67735990"}},{"zip":"67368","cityData":{"country_code":"DE","postal_code":"67368","state":"Rheinland-Pfalz","place_name":"Westheim","lat":"49.23735174","lng":"8.32833262"}},{"zip":"26810","cityData":{"country_code":"DE","postal_code":"26810","state":"Niedersachsen","place_name":"Westoverledingen","lat":"53.14966279","lng":"7.44086513"}},{"zip":"35435","cityData":{"country_code":"DE","postal_code":"35435","state":"Hessen","place_name":"Wettenberg","lat":"50.64678211","lng":"8.64571499"}},{"zip":"35083","cityData":{"country_code":"DE","postal_code":"35083","state":"Hessen","place_name":"Wetter","lat":"50.91446700","lng":"8.72308887"}},{"zip":"58300","cityData":{"country_code":"DE","postal_code":"58300","state":"Nordrhein-Westfalen","place_name":"Wetter (Ruhr)","lat":"51.37937434","lng":"7.35439831"}},{"zip":"48493","cityData":{"country_code":"DE","postal_code":"48493","state":"Nordrhein-Westfalen","place_name":"Wettringen","lat":"52.23212331","lng":"7.29342819"}},{"zip":"91631","cityData":{"country_code":"DE","postal_code":"91631","state":"Bayern","place_name":"Wettringen","lat":"49.26079868","lng":"10.16441338"}},{"zip":"85139","cityData":{"country_code":"DE","postal_code":"85139","state":"Bayern","place_name":"Wettstetten","lat":"48.83326270","lng":"11.40792597"}},{"zip":"35576","cityData":{"country_code":"DE","postal_code":"35576","state":"Hessen","place_name":"Wetzlar","lat":"50.56691438","lng":"8.48282193"}},{"zip":"35578","cityData":{"country_code":"DE","postal_code":"35578","state":"Hessen","place_name":"Wetzlar","lat":"50.54533752","lng":"8.51039336"}},{"zip":"35579","cityData":{"country_code":"DE","postal_code":"35579","state":"Hessen","place_name":"Wetzlar","lat":"50.54365064","lng":"8.45226109"}},{"zip":"35580","cityData":{"country_code":"DE","postal_code":"35580","state":"Hessen","place_name":"Wetzlar","lat":"50.52509477","lng":"8.48554910"}},{"zip":"35581","cityData":{"country_code":"DE","postal_code":"35581","state":"Hessen","place_name":"Wetzlar","lat":"50.54855403","lng":"8.56583605"}},{"zip":"35582","cityData":{"country_code":"DE","postal_code":"35582","state":"Hessen","place_name":"Wetzlar","lat":"50.56350076","lng":"8.59341498"}},{"zip":"35583","cityData":{"country_code":"DE","postal_code":"35583","state":"Hessen","place_name":"Wetzlar","lat":"50.56802575","lng":"8.52930496"}},{"zip":"35584","cityData":{"country_code":"DE","postal_code":"35584","state":"Hessen","place_name":"Wetzlar","lat":"50.59521076","lng":"8.52145758"}},{"zip":"35585","cityData":{"country_code":"DE","postal_code":"35585","state":"Hessen","place_name":"Wetzlar","lat":"50.61702640","lng":"8.49859825"}},{"zip":"35586","cityData":{"country_code":"DE","postal_code":"35586","state":"Hessen","place_name":"Wetzlar","lat":"50.58923886","lng":"8.48843729"}},{"zip":"25599","cityData":{"country_code":"DE","postal_code":"25599","state":"Schleswig-Holstein","place_name":"Wewelsfleth","lat":"53.85123128","lng":"9.38555317"}},{"zip":"83629","cityData":{"country_code":"DE","postal_code":"83629","state":"Bayern","place_name":"Weyarn","lat":"47.85965026","lng":"11.81372872"}},{"zip":"38554","cityData":{"country_code":"DE","postal_code":"38554","state":"Niedersachsen","place_name":"Weyhausen","lat":"52.46492230","lng":"10.71429954"}},{"zip":"28844","cityData":{"country_code":"DE","postal_code":"28844","state":"Niedersachsen","place_name":"Weyhe","lat":"52.98997374","lng":"8.84841898"}},{"zip":"58739","cityData":{"country_code":"DE","postal_code":"58739","state":"Nordrhein-Westfalen","place_name":"Wickede","lat":"51.49767869","lng":"7.86858910"}},{"zip":"74259","cityData":{"country_code":"DE","postal_code":"74259","state":"Baden-Württemberg","place_name":"Widdern","lat":"49.32983770","lng":"9.42529259"}},{"zip":"79695","cityData":{"country_code":"DE","postal_code":"79695","state":"Baden-Württemberg","place_name":"Wieden","lat":"47.84328952","lng":"7.88953772"}},{"zip":"31719","cityData":{"country_code":"DE","postal_code":"31719","state":"Niedersachsen","place_name":"Wiedensahl","lat":"52.39298294","lng":"9.12621928"}},{"zip":"86879","cityData":{"country_code":"DE","postal_code":"86879","state":"Bayern","place_name":"Wiedergeltingen","lat":"48.03716379","lng":"10.66938126"}},{"zip":"26215","cityData":{"country_code":"DE","postal_code":"26215","state":"Niedersachsen","place_name":"Wiefelstede","lat":"53.25639350","lng":"8.10585505"}},{"zip":"51674","cityData":{"country_code":"DE","postal_code":"51674","state":"Nordrhein-Westfalen","place_name":"Wiehl","lat":"50.95908054","lng":"7.52943805"}},{"zip":"82407","cityData":{"country_code":"DE","postal_code":"82407","state":"Bayern","place_name":"Wielenbach","lat":"47.87058599","lng":"11.18750010"}},{"zip":"29342","cityData":{"country_code":"DE","postal_code":"29342","state":"Niedersachsen","place_name":"Wienhausen","lat":"52.57929471","lng":"10.20458545"}},{"zip":"75446","cityData":{"country_code":"DE","postal_code":"75446","state":"Baden-Württemberg","place_name":"Wiernsheim","lat":"48.88966287","lng":"8.87373436"}},{"zip":"95676","cityData":{"country_code":"DE","postal_code":"95676","state":"Bayern","place_name":"Wiesau","lat":"49.90677740","lng":"12.18806851"}},{"zip":"55246","cityData":{"country_code":"DE","postal_code":"55246","state":"Hessen","place_name":"Mainz-Kostheim","lat":"50.01200970","lng":"8.31153875"}},{"zip":"55252","cityData":{"country_code":"DE","postal_code":"55252","state":"Hessen","place_name":"Mainz-Kastel","lat":"50.02423223","lng":"8.28572289"}},{"zip":"65183","cityData":{"country_code":"DE","postal_code":"65183","state":"Hessen","place_name":"Wiesbaden","lat":"50.08442832","lng":"8.23768404"}},{"zip":"65185","cityData":{"country_code":"DE","postal_code":"65185","state":"Hessen","place_name":"Wiesbaden","lat":"50.07615987","lng":"8.24000969"}},{"zip":"65187","cityData":{"country_code":"DE","postal_code":"65187","state":"Hessen","place_name":"Wiesbaden","lat":"50.06051585","lng":"8.23409867"}},{"zip":"65189","cityData":{"country_code":"DE","postal_code":"65189","state":"Hessen","place_name":"Wiesbaden","lat":"50.07235026","lng":"8.25950596"}},{"zip":"65191","cityData":{"country_code":"DE","postal_code":"65191","state":"Hessen","place_name":"Wiesbaden","lat":"50.09232853","lng":"8.27658965"}},{"zip":"65193","cityData":{"country_code":"DE","postal_code":"65193","state":"Hessen","place_name":"Wiesbaden","lat":"50.11069131","lng":"8.23609826"}},{"zip":"65195","cityData":{"country_code":"DE","postal_code":"65195","state":"Hessen","place_name":"Wiesbaden","lat":"50.10565341","lng":"8.19773017"}},{"zip":"65197","cityData":{"country_code":"DE","postal_code":"65197","state":"Hessen","place_name":"Wiesbaden","lat":"50.08251121","lng":"8.20691460"}},{"zip":"65199","cityData":{"country_code":"DE","postal_code":"65199","state":"Hessen","place_name":"Wiesbaden","lat":"50.09048704","lng":"8.16774906"}},{"zip":"65201","cityData":{"country_code":"DE","postal_code":"65201","state":"Hessen","place_name":"Wiesbaden","lat":"50.06056020","lng":"8.17074059"}},{"zip":"65203","cityData":{"country_code":"DE","postal_code":"65203","state":"Hessen","place_name":"Wiesbaden","lat":"50.03943936","lng":"8.24215251"}},{"zip":"65205","cityData":{"country_code":"DE","postal_code":"65205","state":"Hessen","place_name":"Wiesbaden","lat":"50.05279778","lng":"8.31549058"}},{"zip":"65207","cityData":{"country_code":"DE","postal_code":"65207","state":"Hessen","place_name":"Wiesbaden","lat":"50.11042292","lng":"8.31166594"}},{"zip":"63831","cityData":{"country_code":"DE","postal_code":"63831","state":"Bayern","place_name":"Wiesen","lat":"50.11340190","lng":"9.36140197"}},{"zip":"69257","cityData":{"country_code":"DE","postal_code":"69257","state":"Baden-Württemberg","place_name":"Wiesenbach","lat":"49.36649695","lng":"8.82828826"}},{"zip":"86519","cityData":{"country_code":"DE","postal_code":"86519","state":"Bayern","place_name":"Wiesenbach","lat":"48.29284915","lng":"10.30572500"}},{"zip":"14827","cityData":{"country_code":"DE","postal_code":"14827","state":"Brandenburg","place_name":"Wiesenburg","lat":"52.09977684","lng":"12.41238219"}},{"zip":"94344","cityData":{"country_code":"DE","postal_code":"94344","state":"Bayern","place_name":"Wiesenfelden","lat":"49.03675704","lng":"12.54333880"}},{"zip":"73349","cityData":{"country_code":"DE","postal_code":"73349","state":"Baden-Württemberg","place_name":"Wiesensteig","lat":"48.56008194","lng":"9.61025458"}},{"zip":"93109","cityData":{"country_code":"DE","postal_code":"93109","state":"Bayern","place_name":"Wiesent","lat":"49.04213628","lng":"12.32397365"}},{"zip":"91369","cityData":{"country_code":"DE","postal_code":"91369","state":"Bayern","place_name":"Wiesenthau","lat":"49.71099779","lng":"11.14079350"}},{"zip":"97353","cityData":{"country_code":"DE","postal_code":"97353","state":"Bayern","place_name":"Wiesentheid","lat":"49.80008413","lng":"10.33101490"}},{"zip":"91346","cityData":{"country_code":"DE","postal_code":"91346","state":"Bayern","place_name":"Wiesenttal","lat":"49.82195792","lng":"11.25105733"}},{"zip":"91632","cityData":{"country_code":"DE","postal_code":"91632","state":"Bayern","place_name":"Wieseth","lat":"49.16805453","lng":"10.47412116"}},{"zip":"69168","cityData":{"country_code":"DE","postal_code":"69168","state":"Baden-Württemberg","place_name":"Wiesloch","lat":"49.30153491","lng":"8.71680204"}},{"zip":"26639","cityData":{"country_code":"DE","postal_code":"26639","state":"Niedersachsen","place_name":"Wiesmoor","lat":"53.41270354","lng":"7.72793260"}},{"zip":"97859","cityData":{"country_code":"DE","postal_code":"97859","state":"Bayern","place_name":"Wiesthal","lat":"50.02988711","lng":"9.43404923"}},{"zip":"49835","cityData":{"country_code":"DE","postal_code":"49835","state":"Niedersachsen","place_name":"Wietmarschen","lat":"52.51765955","lng":"7.17893574"}},{"zip":"29323","cityData":{"country_code":"DE","postal_code":"29323","state":"Niedersachsen","place_name":"Wietze","lat":"52.64391689","lng":"9.82137827"}},{"zip":"31613","cityData":{"country_code":"DE","postal_code":"31613","state":"Niedersachsen","place_name":"Wietzen","lat":"52.70000870","lng":"9.06266075"}},{"zip":"29649","cityData":{"country_code":"DE","postal_code":"29649","state":"Niedersachsen","place_name":"Wietzendorf","lat":"52.93009101","lng":"9.98593858"}},{"zip":"87487","cityData":{"country_code":"DE","postal_code":"87487","state":"Bayern","place_name":"Wiggensbach","lat":"47.74737175","lng":"10.21304227"}},{"zip":"91634","cityData":{"country_code":"DE","postal_code":"91634","state":"Bayern","place_name":"Wilburgstetten","lat":"49.01658038","lng":"10.39759500"}},{"zip":"15745","cityData":{"country_code":"DE","postal_code":"15745","state":"Brandenburg","place_name":"Wildau","lat":"52.32283565","lng":"13.62589244"}},{"zip":"72218","cityData":{"country_code":"DE","postal_code":"72218","state":"Baden-Württemberg","place_name":"Wildberg","lat":"48.63518552","lng":"8.74735164"}},{"zip":"36208","cityData":{"country_code":"DE","postal_code":"36208","state":"Hessen","place_name":"Wildeck","lat":"50.95489351","lng":"9.98136594"}},{"zip":"93359","cityData":{"country_code":"DE","postal_code":"93359","state":"Bayern","place_name":"Wildenberg","lat":"48.72331449","lng":"11.90651129"}},{"zip":"27793","cityData":{"country_code":"DE","postal_code":"27793","state":"Niedersachsen","place_name":"Wildeshausen","lat":"52.88202064","lng":"8.40221481"}},{"zip":"97772","cityData":{"country_code":"DE","postal_code":"97772","state":"Bayern","place_name":"Wildflecken","lat":"50.36467700","lng":"9.85422517"}},{"zip":"87499","cityData":{"country_code":"DE","postal_code":"87499","state":"Bayern","place_name":"Wildpoldsried","lat":"47.77910308","lng":"10.41389100"}},{"zip":"82409","cityData":{"country_code":"DE","postal_code":"82409","state":"Bayern","place_name":"Wildsteig","lat":"47.67114615","lng":"10.94213650"}},{"zip":"91489","cityData":{"country_code":"DE","postal_code":"91489","state":"Bayern","place_name":"Wilhelmsdorf","lat":"49.57843999","lng":"10.73551687"}},{"zip":"88271","cityData":{"country_code":"DE","postal_code":"88271","state":"Baden-Württemberg","place_name":"Wilhelmsdorf","lat":"47.86542885","lng":"9.42405297"}},{"zip":"69259","cityData":{"country_code":"DE","postal_code":"69259","state":"Baden-Württemberg","place_name":"Wilhelmsfeld","lat":"49.46913779","lng":"8.76661571"}},{"zip":"26382","cityData":{"country_code":"DE","postal_code":"26382","state":"Niedersachsen","place_name":"Wilhelmshaven","lat":"53.52092081","lng":"8.11194928"}},{"zip":"26384","cityData":{"country_code":"DE","postal_code":"26384","state":"Niedersachsen","place_name":"Wilhelmshaven","lat":"53.53736711","lng":"8.14552258"}},{"zip":"26386","cityData":{"country_code":"DE","postal_code":"26386","state":"Niedersachsen","place_name":"Wilhelmshaven","lat":"53.55709821","lng":"8.11584387"}},{"zip":"26388","cityData":{"country_code":"DE","postal_code":"26388","state":"Niedersachsen","place_name":"Wilhelmshaven","lat":"53.59490486","lng":"8.06763334"}},{"zip":"26389","cityData":{"country_code":"DE","postal_code":"26389","state":"Niedersachsen","place_name":"Wilhelmshaven","lat":"53.52938324","lng":"8.07243236"}},{"zip":"96352","cityData":{"country_code":"DE","postal_code":"96352","state":"Bayern","place_name":"Wilhelmsthal","lat":"50.31912089","lng":"11.38359202"}},{"zip":"91452","cityData":{"country_code":"DE","postal_code":"91452","state":"Bayern","place_name":"Wilhermsdorf","lat":"49.46569437","lng":"10.71790897"}},{"zip":"08112","cityData":{"country_code":"DE","postal_code":"08112","state":"Sachsen","place_name":"Wilkau-Haßlau","lat":"50.67500000","lng":"12.51480000"}},{"zip":"34439","cityData":{"country_code":"DE","postal_code":"34439","state":"Nordrhein-Westfalen","place_name":"Willebadessen","lat":"51.60944657","lng":"9.09588031"}},{"zip":"47877","cityData":{"country_code":"DE","postal_code":"47877","state":"Nordrhein-Westfalen","place_name":"Willich","lat":"51.26372159","lng":"6.51883817"}},{"zip":"34508","cityData":{"country_code":"DE","postal_code":"34508","state":"Hessen","place_name":"Willingen (Upland)","lat":"51.29237731","lng":"8.65366736"}},{"zip":"34628","cityData":{"country_code":"DE","postal_code":"34628","state":"Hessen","place_name":"Willingshausen","lat":"50.86473364","lng":"9.21476583"}},{"zip":"93497","cityData":{"country_code":"DE","postal_code":"93497","state":"Bayern","place_name":"Willmering","lat":"49.24899394","lng":"12.68161208"}},{"zip":"56594","cityData":{"country_code":"DE","postal_code":"56594","state":"Rheinland-Pfalz","place_name":"Willroth","lat":"50.57071481","lng":"7.52907288"}},{"zip":"77731","cityData":{"country_code":"DE","postal_code":"77731","state":"Baden-Württemberg","place_name":"Willstätt","lat":"48.55083665","lng":"7.89597979"}},{"zip":"57234","cityData":{"country_code":"DE","postal_code":"57234","state":"Nordrhein-Westfalen","place_name":"Wilnsdorf","lat":"50.83113383","lng":"8.11487464"}},{"zip":"01723","cityData":{"country_code":"DE","postal_code":"01723","state":"Sachsen","place_name":"Wilsdruff","lat":"51.05200000","lng":"13.53660000"}},{"zip":"49849","cityData":{"country_code":"DE","postal_code":"49849","state":"Niedersachsen","place_name":"Wilsum","lat":"52.54558048","lng":"6.83232010"}},{"zip":"54459","cityData":{"country_code":"DE","postal_code":"54459","state":"Rheinland-Pfalz","place_name":"Wiltingen","lat":"49.64091194","lng":"6.61348276"}},{"zip":"71299","cityData":{"country_code":"DE","postal_code":"71299","state":"Baden-Württemberg","place_name":"Wimsheim","lat":"48.85225701","lng":"8.81547999"}},{"zip":"54457","cityData":{"country_code":"DE","postal_code":"54457","state":"Rheinland-Pfalz","place_name":"Wincheringen","lat":"49.60569112","lng":"6.44410185"}},{"zip":"86949","cityData":{"country_code":"DE","postal_code":"86949","state":"Bayern","place_name":"Windach","lat":"48.06122357","lng":"11.02562369"}},{"zip":"25729","cityData":{"country_code":"DE","postal_code":"25729","state":"Schleswig-Holstein","place_name":"Windbergen","lat":"54.04841332","lng":"9.12220970"}},{"zip":"51570","cityData":{"country_code":"DE","postal_code":"51570","state":"Nordrhein-Westfalen","place_name":"Windeck","lat":"50.79432757","lng":"7.57293456"}},{"zip":"91635","cityData":{"country_code":"DE","postal_code":"91635","state":"Bayern","place_name":"Windelsbach","lat":"49.40129498","lng":"10.28926769"}},{"zip":"79297","cityData":{"country_code":"DE","postal_code":"79297","state":"Baden-Württemberg","place_name":"Winden im Elztal","lat":"48.14200983","lng":"8.04459230"}},{"zip":"53578","cityData":{"country_code":"DE","postal_code":"53578","state":"Rheinland-Pfalz","place_name":"Windhagen","lat":"50.64009545","lng":"7.36047772"}},{"zip":"92670","cityData":{"country_code":"DE","postal_code":"92670","state":"Bayern","place_name":"Windischeschenbach","lat":"49.81258215","lng":"12.15774674"}},{"zip":"94575","cityData":{"country_code":"DE","postal_code":"94575","state":"Bayern","place_name":"Windorf","lat":"48.63027352","lng":"13.24134545"}},{"zip":"91575","cityData":{"country_code":"DE","postal_code":"91575","state":"Bayern","place_name":"Windsbach","lat":"49.25373517","lng":"10.84192989"}},{"zip":"21789","cityData":{"country_code":"DE","postal_code":"21789","state":"Niedersachsen","place_name":"Wingst","lat":"53.73641653","lng":"9.04990525"}},{"zip":"84543","cityData":{"country_code":"DE","postal_code":"84543","state":"Bayern","place_name":"Winhöring","lat":"48.27197741","lng":"12.65226847"}},{"zip":"90610","cityData":{"country_code":"DE","postal_code":"90610","state":"Bayern","place_name":"Winkelhaid","lat":"49.38697882","lng":"11.30018692"}},{"zip":"92559","cityData":{"country_code":"DE","postal_code":"92559","state":"Bayern","place_name":"Winklarn","lat":"49.43725804","lng":"12.50617140"}},{"zip":"71364","cityData":{"country_code":"DE","postal_code":"71364","state":"Baden-Württemberg","place_name":"Winnenden","lat":"48.87350041","lng":"9.41540574"}},{"zip":"25887","cityData":{"country_code":"DE","postal_code":"25887","state":"Schleswig-Holstein","place_name":"Winnert","lat":"54.43251324","lng":"9.23351484"}},{"zip":"56333","cityData":{"country_code":"DE","postal_code":"56333","state":"Rheinland-Pfalz","place_name":"Winningen","lat":"50.32163060","lng":"7.51373355"}},{"zip":"67722","cityData":{"country_code":"DE","postal_code":"67722","state":"Rheinland-Pfalz","place_name":"Potzbach","lat":"49.56458667","lng":"7.85457439"}},{"zip":"29308","cityData":{"country_code":"DE","postal_code":"29308","state":"Niedersachsen","place_name":"Winsen (Aller)","lat":"52.70165696","lng":"9.88497508"}},{"zip":"73650","cityData":{"country_code":"DE","postal_code":"73650","state":"Baden-Württemberg","place_name":"Winterbach","lat":"48.79309956","lng":"9.47059140"}},{"zip":"89368","cityData":{"country_code":"DE","postal_code":"89368","state":"Bayern","place_name":"Winterbach","lat":"48.46781544","lng":"10.49821318"}},{"zip":"59955","cityData":{"country_code":"DE","postal_code":"59955","state":"Nordrhein-Westfalen","place_name":"Winterberg","lat":"51.20707276","lng":"8.51363880"}},{"zip":"72474","cityData":{"country_code":"DE","postal_code":"72474","state":"Baden-Württemberg","place_name":"Winterlingen","lat":"48.18943846","lng":"9.13970241"}},{"zip":"87785","cityData":{"country_code":"DE","postal_code":"87785","state":"Bayern","place_name":"Winterrieden","lat":"48.11923182","lng":"10.21268218"}},{"zip":"67587","cityData":{"country_code":"DE","postal_code":"67587","state":"Rheinland-Pfalz","place_name":"Wintersheim","lat":"49.77943236","lng":"8.29452938"}},{"zip":"54616","cityData":{"country_code":"DE","postal_code":"54616","state":"Rheinland-Pfalz","place_name":"Winterspelt","lat":"50.21232838","lng":"6.21202112"}},{"zip":"54487","cityData":{"country_code":"DE","postal_code":"54487","state":"Rheinland-Pfalz","place_name":"Wintrich","lat":"49.85735391","lng":"6.98169540"}},{"zip":"94577","cityData":{"country_code":"DE","postal_code":"94577","state":"Bayern","place_name":"Winzer","lat":"48.71549000","lng":"13.09624891"}},{"zip":"97537","cityData":{"country_code":"DE","postal_code":"97537","state":"Bayern","place_name":"Wipfeld","lat":"49.92258067","lng":"10.17230980"}},{"zip":"51688","cityData":{"country_code":"DE","postal_code":"51688","state":"Nordrhein-Westfalen","place_name":"Wipperfürth","lat":"51.11265880","lng":"7.40244298"}},{"zip":"56422","cityData":{"country_code":"DE","postal_code":"56422","state":"Rheinland-Pfalz","place_name":"Wirges","lat":"50.46952543","lng":"7.79052464"}},{"zip":"21737","cityData":{"country_code":"DE","postal_code":"21737","state":"Niedersachsen","place_name":"Wischhafen","lat":"53.77150845","lng":"9.30920436"}},{"zip":"91749","cityData":{"country_code":"DE","postal_code":"91749","state":"Bayern","place_name":"Wittelshofen","lat":"49.06654320","lng":"10.45639557"}},{"zip":"58452","cityData":{"country_code":"DE","postal_code":"58452","state":"Nordrhein-Westfalen","place_name":"Witten","lat":"51.42413941","lng":"7.32806888"}},{"zip":"58453","cityData":{"country_code":"DE","postal_code":"58453","state":"Nordrhein-Westfalen","place_name":"Witten","lat":"51.43275728","lng":"7.37262564"}},{"zip":"58454","cityData":{"country_code":"DE","postal_code":"58454","state":"Nordrhein-Westfalen","place_name":"Witten","lat":"51.45994276","lng":"7.37866141"}},{"zip":"58455","cityData":{"country_code":"DE","postal_code":"58455","state":"Nordrhein-Westfalen","place_name":"Witten","lat":"51.44641600","lng":"7.31471963"}},{"zip":"58456","cityData":{"country_code":"DE","postal_code":"58456","state":"Nordrhein-Westfalen","place_name":"Witten","lat":"51.40243608","lng":"7.28356903"}},{"zip":"06886","cityData":{"country_code":"DE","postal_code":"06886","state":"Sachsen-Anhalt","place_name":"Lutherstadt Wittenberg","lat":"51.87440000","lng":"12.60600000"}},{"zip":"06888","cityData":{"country_code":"DE","postal_code":"06888","state":"Sachsen-Anhalt","place_name":"Dabrun","lat":"51.83300000","lng":"12.70940000"}},{"zip":"06889","cityData":{"country_code":"DE","postal_code":"06889","state":"Sachsen-Anhalt","place_name":"Lutherstadt Wittenberg","lat":"51.87440000","lng":"12.60600000"}},{"zip":"19243","cityData":{"country_code":"DE","postal_code":"19243","state":"Mecklenburg-Vorpommern","place_name":"Lehsen","lat":"53.51961878","lng":"11.08292996"}},{"zip":"84384","cityData":{"country_code":"DE","postal_code":"84384","state":"Bayern","place_name":"Wittibreut","lat":"48.34175543","lng":"13.00875001"}},{"zip":"02997","cityData":{"country_code":"DE","postal_code":"02997","state":"Sachsen","place_name":"Wittichenau","lat":"51.38500000","lng":"14.24400000"}},{"zip":"97957","cityData":{"country_code":"DE","postal_code":"97957","state":"Baden-Württemberg","place_name":"Wittighausen","lat":"49.61492584","lng":"9.82852752"}},{"zip":"29378","cityData":{"country_code":"DE","postal_code":"29378","state":"Niedersachsen","place_name":"Wittingen","lat":"52.69445564","lng":"10.76414308"}},{"zip":"29379","cityData":{"country_code":"DE","postal_code":"29379","state":"Niedersachsen","place_name":"Wittingen","lat":"52.66297860","lng":"10.69159416"}},{"zip":"79599","cityData":{"country_code":"DE","postal_code":"79599","state":"Baden-Württemberg","place_name":"Wittlingen","lat":"47.66143776","lng":"7.65850208"}},{"zip":"38329","cityData":{"country_code":"DE","postal_code":"38329","state":"Niedersachsen","place_name":"Wittmar","lat":"52.13121794","lng":"10.64402985"}},{"zip":"26409","cityData":{"country_code":"DE","postal_code":"26409","state":"Niedersachsen","place_name":"Wittmund Uttel","lat":"53.58895562","lng":"7.75905863"}},{"zip":"79299","cityData":{"country_code":"DE","postal_code":"79299","state":"Baden-Württemberg","place_name":"Wittnau","lat":"47.93885457","lng":"7.82962231"}},{"zip":"37213","cityData":{"country_code":"DE","postal_code":"37213","state":"Hessen","place_name":"Witzenhausen","lat":"51.35105152","lng":"9.85364581"}},{"zip":"37214","cityData":{"country_code":"DE","postal_code":"37214","state":"Hessen","place_name":"Witzenhausen","lat":"51.33515974","lng":"9.91013277"}},{"zip":"37215","cityData":{"country_code":"DE","postal_code":"37215","state":"Hessen","place_name":"Witzenhausen","lat":"51.30287388","lng":"9.86239363"}},{"zip":"37216","cityData":{"country_code":"DE","postal_code":"37216","state":"Hessen","place_name":"Witzenhausen","lat":"51.31120708","lng":"9.81612878"}},{"zip":"37217","cityData":{"country_code":"DE","postal_code":"37217","state":"Hessen","place_name":"Witzenhausen","lat":"51.31689040","lng":"9.75303394"}},{"zip":"37218","cityData":{"country_code":"DE","postal_code":"37218","state":"Hessen","place_name":"Witzenhausen","lat":"51.38666971","lng":"9.81840095"}},{"zip":"22969","cityData":{"country_code":"DE","postal_code":"22969","state":"Schleswig-Holstein","place_name":"Witzhave","lat":"53.57562688","lng":"10.32967400"}},{"zip":"24899","cityData":{"country_code":"DE","postal_code":"24899","state":"Schleswig-Holstein","place_name":"Wohlde","lat":"54.40756693","lng":"9.30282264"}},{"zip":"35288","cityData":{"country_code":"DE","postal_code":"35288","state":"Hessen","place_name":"Wohratal","lat":"50.93391053","lng":"8.92687073"}},{"zip":"25797","cityData":{"country_code":"DE","postal_code":"25797","state":"Schleswig-Holstein","place_name":"Wöhrden","lat":"54.16254766","lng":"9.00534762"}},{"zip":"17348","cityData":{"country_code":"DE","postal_code":"17348","state":"Mecklenburg-Vorpommern","place_name":"Neu Käbelich","lat":"53.46912774","lng":"13.60016332"}},{"zip":"88364","cityData":{"country_code":"DE","postal_code":"88364","state":"Baden-Württemberg","place_name":"Wolfegg","lat":"47.82573199","lng":"9.79354138"}},{"zip":"38300","cityData":{"country_code":"DE","postal_code":"38300","state":"Niedersachsen","place_name":"Wolfenbüttel","lat":"52.15508469","lng":"10.56187138"}},{"zip":"38302","cityData":{"country_code":"DE","postal_code":"38302","state":"Niedersachsen","place_name":"Wolfenbüttel","lat":"52.18529538","lng":"10.58051962"}},{"zip":"38304","cityData":{"country_code":"DE","postal_code":"38304","state":"Niedersachsen","place_name":"Wolfenbüttel","lat":"52.14867277","lng":"10.49796359"}},{"zip":"86709","cityData":{"country_code":"DE","postal_code":"86709","state":"Bayern","place_name":"Wolferstadt","lat":"48.91267869","lng":"10.77677738"}},{"zip":"87787","cityData":{"country_code":"DE","postal_code":"87787","state":"Bayern","place_name":"Wolfertschwenden","lat":"47.90407538","lng":"10.26005229"}},{"zip":"34466","cityData":{"country_code":"DE","postal_code":"34466","state":"Hessen","place_name":"Wolfhagen","lat":"51.32698285","lng":"9.17378298"}},{"zip":"91639","cityData":{"country_code":"DE","postal_code":"91639","state":"Bayern","place_name":"Wolframs-Eschenbach","lat":"49.22251816","lng":"10.73196347"}},{"zip":"82515","cityData":{"country_code":"DE","postal_code":"82515","state":"Bayern","place_name":"Wolfratshausen","lat":"47.91168390","lng":"11.42647784"}},{"zip":"38440","cityData":{"country_code":"DE","postal_code":"38440","state":"Niedersachsen","place_name":"Wolfsburg","lat":"52.42697531","lng":"10.76742534"}},{"zip":"38442","cityData":{"country_code":"DE","postal_code":"38442","state":"Niedersachsen","place_name":"Wolfsburg","lat":"52.41979797","lng":"10.69800707"}},{"zip":"38444","cityData":{"country_code":"DE","postal_code":"38444","state":"Niedersachsen","place_name":"Wolfsburg","lat":"52.37669520","lng":"10.76270298"}},{"zip":"38446","cityData":{"country_code":"DE","postal_code":"38446","state":"Niedersachsen","place_name":"Wolfsburg","lat":"52.38339629","lng":"10.83747129"}},{"zip":"38448","cityData":{"country_code":"DE","postal_code":"38448","state":"Niedersachsen","place_name":"Wolfsburg","lat":"52.45885497","lng":"10.81786569"}},{"zip":"72649","cityData":{"country_code":"DE","postal_code":"72649","state":"Baden-Württemberg","place_name":"Wolfschlugen","lat":"48.65578449","lng":"9.28581426"}},{"zip":"17438","cityData":{"country_code":"DE","postal_code":"17438","state":"Mecklenburg-Vorpommern","place_name":"Wolgast","lat":"54.06135782","lng":"13.76982977"}},{"zip":"09429","cityData":{"country_code":"DE","postal_code":"09429","state":"Sachsen","place_name":"Wolkenstein","lat":"50.65550000","lng":"13.07130000"}},{"zip":"61206","cityData":{"country_code":"DE","postal_code":"61206","state":"Hessen","place_name":"Wöllstadt","lat":"50.28389546","lng":"8.76004906"}},{"zip":"85283","cityData":{"country_code":"DE","postal_code":"85283","state":"Bayern","place_name":"Wolnzach","lat":"48.60325363","lng":"11.63052843"}},{"zip":"74549","cityData":{"country_code":"DE","postal_code":"74549","state":"Baden-Württemberg","place_name":"Wolpertshausen","lat":"49.16544247","lng":"9.85158865"}},{"zip":"88284","cityData":{"country_code":"DE","postal_code":"88284","state":"Baden-Württemberg","place_name":"Wolpertswende","lat":"47.89376707","lng":"9.62201951"}},{"zip":"31556","cityData":{"country_code":"DE","postal_code":"31556","state":"Niedersachsen","place_name":"Wölpinghausen Wölpinghausen","lat":"52.42141974","lng":"9.23559351"}},{"zip":"38379","cityData":{"country_code":"DE","postal_code":"38379","state":"Niedersachsen","place_name":"Wolsdorf","lat":"52.19872827","lng":"10.94861647"}},{"zip":"15569","cityData":{"country_code":"DE","postal_code":"15569","state":"Brandenburg","place_name":"Woltersdorf","lat":"52.45128670","lng":"13.76499093"}},{"zip":"29497","cityData":{"country_code":"DE","postal_code":"29497","state":"Niedersachsen","place_name":"Woltersdorf","lat":"52.95235763","lng":"11.23646473"}},{"zip":"97539","cityData":{"country_code":"DE","postal_code":"97539","state":"Bayern","place_name":"Wonfurt","lat":"49.99776589","lng":"10.45433632"}},{"zip":"83379","cityData":{"country_code":"DE","postal_code":"83379","state":"Bayern","place_name":"Wonneberg","lat":"47.89265804","lng":"12.68491734"}},{"zip":"96197","cityData":{"country_code":"DE","postal_code":"96197","state":"Bayern","place_name":"Wonsees","lat":"49.99111268","lng":"11.31338232"}},{"zip":"87789","cityData":{"country_code":"DE","postal_code":"87789","state":"Bayern","place_name":"Woringen","lat":"47.92498279","lng":"10.19869136"}},{"zip":"67547","cityData":{"country_code":"DE","postal_code":"67547","state":"Rheinland-Pfalz","place_name":"Worms","lat":"49.62689153","lng":"8.37156749"}},{"zip":"67549","cityData":{"country_code":"DE","postal_code":"67549","state":"Rheinland-Pfalz","place_name":"Worms","lat":"49.63708574","lng":"8.33013064"}},{"zip":"67550","cityData":{"country_code":"DE","postal_code":"67550","state":"Rheinland-Pfalz","place_name":"Worms","lat":"49.68906082","lng":"8.34086180"}},{"zip":"67551","cityData":{"country_code":"DE","postal_code":"67551","state":"Rheinland-Pfalz","place_name":"Worms","lat":"49.61833857","lng":"8.28749395"}},{"zip":"72299","cityData":{"country_code":"DE","postal_code":"72299","state":"Baden-Württemberg","place_name":"Wörnersberg","lat":"48.56126236","lng":"8.56317331"}},{"zip":"91637","cityData":{"country_code":"DE","postal_code":"91637","state":"Bayern","place_name":"Wörnitz","lat":"49.24434183","lng":"10.22551506"}},{"zip":"73499","cityData":{"country_code":"DE","postal_code":"73499","state":"Baden-Württemberg","place_name":"Wört","lat":"49.03153069","lng":"10.26567110"}},{"zip":"85457","cityData":{"country_code":"DE","postal_code":"85457","state":"Bayern","place_name":"Wörth","lat":"48.24291832","lng":"11.91666373"}},{"zip":"84109","cityData":{"country_code":"DE","postal_code":"84109","state":"Bayern","place_name":"Wörth an der Isar","lat":"48.62656672","lng":"12.33717972"}},{"zip":"63939","cityData":{"country_code":"DE","postal_code":"63939","state":"Bayern","place_name":"Wörth am Main","lat":"49.78326465","lng":"9.13945107"}},{"zip":"93086","cityData":{"country_code":"DE","postal_code":"93086","state":"Bayern","place_name":"Wörth an der Donau","lat":"49.00604760","lng":"12.42157247"}},{"zip":"82237","cityData":{"country_code":"DE","postal_code":"82237","state":"Bayern","place_name":"Wörthsee","lat":"48.08226418","lng":"11.20315240"}},{"zip":"29559","cityData":{"country_code":"DE","postal_code":"29559","state":"Niedersachsen","place_name":"Wrestedt","lat":"52.91501202","lng":"10.59386929"}},{"zip":"29565","cityData":{"country_code":"DE","postal_code":"29565","state":"Niedersachsen","place_name":"Wriedel","lat":"53.02699521","lng":"10.26105068"}},{"zip":"25799","cityData":{"country_code":"DE","postal_code":"25799","state":"Schleswig-Holstein","place_name":"Wrohm","lat":"54.22080490","lng":"9.40358003"}},{"zip":"42489","cityData":{"country_code":"DE","postal_code":"42489","state":"Nordrhein-Westfalen","place_name":"Wülfrath","lat":"51.29338742","lng":"7.03539616"}},{"zip":"21445","cityData":{"country_code":"DE","postal_code":"21445","state":"Niedersachsen","place_name":"Wulfsen","lat":"53.30454853","lng":"10.13482463"}},{"zip":"37199","cityData":{"country_code":"DE","postal_code":"37199","state":"Niedersachsen","place_name":"Wulften","lat":"51.65938002","lng":"10.17972347"}},{"zip":"95632","cityData":{"country_code":"DE","postal_code":"95632","state":"Bayern","place_name":"Wunsiedel","lat":"50.03905328","lng":"12.01282831"}},{"zip":"31515","cityData":{"country_code":"DE","postal_code":"31515","state":"Niedersachsen","place_name":"Wunstorf","lat":"52.43848576","lng":"9.39216766"}},{"zip":"42103","cityData":{"country_code":"DE","postal_code":"42103","state":"Nordrhein-Westfalen","place_name":"Wuppertal","lat":"51.25784842","lng":"7.14709108"}},{"zip":"42105","cityData":{"country_code":"DE","postal_code":"42105","state":"Nordrhein-Westfalen","place_name":"Wuppertal","lat":"51.26441199","lng":"7.13964211"}},{"zip":"42107","cityData":{"country_code":"DE","postal_code":"42107","state":"Nordrhein-Westfalen","place_name":"Wuppertal","lat":"51.26605294","lng":"7.15576968"}},{"zip":"42109","cityData":{"country_code":"DE","postal_code":"42109","state":"Nordrhein-Westfalen","place_name":"Wuppertal","lat":"51.27893223","lng":"7.14785068"}},{"zip":"42111","cityData":{"country_code":"DE","postal_code":"42111","state":"Nordrhein-Westfalen","place_name":"Wuppertal","lat":"51.29707046","lng":"7.14099228"}},{"zip":"42113","cityData":{"country_code":"DE","postal_code":"42113","state":"Nordrhein-Westfalen","place_name":"Wuppertal","lat":"51.27550776","lng":"7.10428157"}},{"zip":"42115","cityData":{"country_code":"DE","postal_code":"42115","state":"Nordrhein-Westfalen","place_name":"Wuppertal","lat":"51.25855894","lng":"7.10983033"}},{"zip":"42117","cityData":{"country_code":"DE","postal_code":"42117","state":"Nordrhein-Westfalen","place_name":"Wuppertal","lat":"51.24398840","lng":"7.12666073"}},{"zip":"42119","cityData":{"country_code":"DE","postal_code":"42119","state":"Nordrhein-Westfalen","place_name":"Wuppertal","lat":"51.24594815","lng":"7.15770803"}},{"zip":"42275","cityData":{"country_code":"DE","postal_code":"42275","state":"Nordrhein-Westfalen","place_name":"Wuppertal","lat":"51.27606211","lng":"7.20566487"}},{"zip":"42277","cityData":{"country_code":"DE","postal_code":"42277","state":"Nordrhein-Westfalen","place_name":"Wuppertal","lat":"51.28476726","lng":"7.22194437"}},{"zip":"42279","cityData":{"country_code":"DE","postal_code":"42279","state":"Nordrhein-Westfalen","place_name":"Wuppertal","lat":"51.30166175","lng":"7.23718016"}},{"zip":"42281","cityData":{"country_code":"DE","postal_code":"42281","state":"Nordrhein-Westfalen","place_name":"Wuppertal","lat":"51.28921374","lng":"7.18964768"}},{"zip":"42283","cityData":{"country_code":"DE","postal_code":"42283","state":"Nordrhein-Westfalen","place_name":"Wuppertal","lat":"51.27474154","lng":"7.18255324"}},{"zip":"42285","cityData":{"country_code":"DE","postal_code":"42285","state":"Nordrhein-Westfalen","place_name":"Wuppertal","lat":"51.25918393","lng":"7.17497066"}},{"zip":"42287","cityData":{"country_code":"DE","postal_code":"42287","state":"Nordrhein-Westfalen","place_name":"Wuppertal","lat":"51.25002478","lng":"7.22402924"}},{"zip":"42289","cityData":{"country_code":"DE","postal_code":"42289","state":"Nordrhein-Westfalen","place_name":"Wuppertal","lat":"51.26622704","lng":"7.22004128"}},{"zip":"42327","cityData":{"country_code":"DE","postal_code":"42327","state":"Nordrhein-Westfalen","place_name":"Wuppertal","lat":"51.24631772","lng":"7.06311145"}},{"zip":"42329","cityData":{"country_code":"DE","postal_code":"42329","state":"Nordrhein-Westfalen","place_name":"Wuppertal","lat":"51.22680624","lng":"7.08052610"}},{"zip":"42349","cityData":{"country_code":"DE","postal_code":"42349","state":"Nordrhein-Westfalen","place_name":"Wuppertal","lat":"51.20931205","lng":"7.13566343"}},{"zip":"42369","cityData":{"country_code":"DE","postal_code":"42369","state":"Nordrhein-Westfalen","place_name":"Wuppertal","lat":"51.23042393","lng":"7.19861592"}},{"zip":"42389","cityData":{"country_code":"DE","postal_code":"42389","state":"Nordrhein-Westfalen","place_name":"Wuppertal","lat":"51.27375951","lng":"7.25294750"}},{"zip":"42399","cityData":{"country_code":"DE","postal_code":"42399","state":"Nordrhein-Westfalen","place_name":"Wuppertal","lat":"51.23419283","lng":"7.27801912"}},{"zip":"84329","cityData":{"country_code":"DE","postal_code":"84329","state":"Bayern","place_name":"Wurmannsquick","lat":"48.35746517","lng":"12.81134274"}},{"zip":"75449","cityData":{"country_code":"DE","postal_code":"75449","state":"Baden-Württemberg","place_name":"Wurmberg","lat":"48.87415970","lng":"8.81631947"}},{"zip":"78573","cityData":{"country_code":"DE","postal_code":"78573","state":"Baden-Württemberg","place_name":"Wurmlingen","lat":"48.00655300","lng":"8.78359628"}},{"zip":"84189","cityData":{"country_code":"DE","postal_code":"84189","state":"Bayern","place_name":"Wurmsham","lat":"48.35139059","lng":"12.32659857"}},{"zip":"52146","cityData":{"country_code":"DE","postal_code":"52146","state":"Nordrhein-Westfalen","place_name":"Würselen","lat":"50.82752953","lng":"6.15252068"}},{"zip":"27639","cityData":{"country_code":"DE","postal_code":"27639","state":"Niedersachsen","place_name":"Mulsum","lat":"53.66670000","lng":"8.55000000"}},{"zip":"07343","cityData":{"country_code":"DE","postal_code":"07343","state":"Thüringen","place_name":"Wurzbach","lat":"50.46360000","lng":"11.53780000"}},{"zip":"97070","cityData":{"country_code":"DE","postal_code":"97070","state":"Bayern","place_name":"Würzburg","lat":"49.79654430","lng":"9.93274931"}},{"zip":"97072","cityData":{"country_code":"DE","postal_code":"97072","state":"Bayern","place_name":"Würzburg","lat":"49.78773689","lng":"9.93836773"}},{"zip":"97074","cityData":{"country_code":"DE","postal_code":"97074","state":"Bayern","place_name":"Würzburg","lat":"49.78529882","lng":"9.96141320"}},{"zip":"97076","cityData":{"country_code":"DE","postal_code":"97076","state":"Bayern","place_name":"Würzburg","lat":"49.80698176","lng":"9.98686232"}},{"zip":"97078","cityData":{"country_code":"DE","postal_code":"97078","state":"Bayern","place_name":"Würzburg","lat":"49.82616943","lng":"9.96595423"}},{"zip":"97080","cityData":{"country_code":"DE","postal_code":"97080","state":"Bayern","place_name":"Würzburg","lat":"49.81904956","lng":"9.91504906"}},{"zip":"97082","cityData":{"country_code":"DE","postal_code":"97082","state":"Bayern","place_name":"Würzburg","lat":"49.77229417","lng":"9.90776337"}},{"zip":"97084","cityData":{"country_code":"DE","postal_code":"97084","state":"Bayern","place_name":"Würzburg","lat":"49.74268943","lng":"9.95548309"}},{"zip":"16868","cityData":{"country_code":"DE","postal_code":"16868","state":"Brandenburg","place_name":"Wusterhausen (Dosse)","lat":"52.90855888","lng":"12.49284159"}},{"zip":"29462","cityData":{"country_code":"DE","postal_code":"29462","state":"Niedersachsen","place_name":"Wustrow","lat":"52.92770658","lng":"11.10760649"}},{"zip":"79879","cityData":{"country_code":"DE","postal_code":"79879","state":"Baden-Württemberg","place_name":"Wutach","lat":"47.82959561","lng":"8.42503263"}},{"zip":"99848","cityData":{"country_code":"DE","postal_code":"99848","state":"Thüringen","place_name":"Wutha-Farnroda","lat":"50.94253081","lng":"10.39760257"}},{"zip":"79793","cityData":{"country_code":"DE","postal_code":"79793","state":"Baden-Württemberg","place_name":"Wutöschingen","lat":"47.65947631","lng":"8.36287930"}},{"zip":"79369","cityData":{"country_code":"DE","postal_code":"79369","state":"Baden-Württemberg","place_name":"Wyhl am Kaiserstuhl","lat":"48.16933400","lng":"7.65359645"}},{"zip":"46509","cityData":{"country_code":"DE","postal_code":"46509","state":"Nordrhein-Westfalen","place_name":"Xanten","lat":"51.67380337","lng":"6.43264242"}},{"zip":"74374","cityData":{"country_code":"DE","postal_code":"74374","state":"Baden-Württemberg","place_name":"Zaberfeld","lat":"49.06261009","lng":"8.90838427"}},{"zip":"06895","cityData":{"country_code":"DE","postal_code":"06895","state":"Sachsen-Anhalt","place_name":"Zahna","lat":"51.91410000","lng":"12.78560000"}},{"zip":"75059","cityData":{"country_code":"DE","postal_code":"75059","state":"Baden-Württemberg","place_name":"Zaisenhausen","lat":"49.10916385","lng":"8.81221566"}},{"zip":"93499","cityData":{"country_code":"DE","postal_code":"93499","state":"Bayern","place_name":"Zandt","lat":"49.14440047","lng":"12.72175753"}},{"zip":"96199","cityData":{"country_code":"DE","postal_code":"96199","state":"Bayern","place_name":"Zapfendorf","lat":"50.01886234","lng":"10.95292554"}},{"zip":"16792","cityData":{"country_code":"DE","postal_code":"16792","state":"Brandenburg","place_name":"Wesendorf","lat":"52.99654024","lng":"13.39025820"}},{"zip":"97475","cityData":{"country_code":"DE","postal_code":"97475","state":"Bayern","place_name":"Zeil am Main","lat":"50.02540040","lng":"10.60601202"}},{"zip":"67378","cityData":{"country_code":"DE","postal_code":"67378","state":"Rheinland-Pfalz","place_name":"Zeiskam","lat":"49.22880594","lng":"8.25456143"}},{"zip":"01619","cityData":{"country_code":"DE","postal_code":"01619","state":"Sachsen","place_name":"Zeithain","lat":"51.33360000","lng":"13.33810000"}},{"zip":"93197","cityData":{"country_code":"DE","postal_code":"93197","state":"Bayern","place_name":"Zeitlarn","lat":"49.08814824","lng":"12.11954376"}},{"zip":"97799","cityData":{"country_code":"DE","postal_code":"97799","state":"Bayern","place_name":"Zeitlofs","lat":"50.25635340","lng":"9.71659354"}},{"zip":"06711","cityData":{"error":true,"status":400,"message":"Postal code in combination with Country code not found","request":["DE","06711"],"timestamp":1720105628}},{"zip":"93199","cityData":{"country_code":"DE","postal_code":"93199","state":"Bayern","place_name":"Zell","lat":"49.13926737","lng":"12.41391176"}},{"zip":"98544","cityData":{"country_code":"DE","postal_code":"98544","state":"Thüringen","place_name":"Zella-Mehlis","lat":"50.66424742","lng":"10.67843156"}},{"zip":"77736","cityData":{"country_code":"DE","postal_code":"77736","state":"Baden-Württemberg","place_name":"Zell am Harmersbach","lat":"48.34369420","lng":"8.08485660"}},{"zip":"97299","cityData":{"country_code":"DE","postal_code":"97299","state":"Bayern","place_name":"Zell am Main","lat":"49.80939347","lng":"9.85754994"}},{"zip":"95239","cityData":{"country_code":"DE","postal_code":"95239","state":"Bayern","place_name":"Zell","lat":"50.13610819","lng":"11.79738860"}},{"zip":"79669","cityData":{"country_code":"DE","postal_code":"79669","state":"Baden-Württemberg","place_name":"Zell im Wiesental","lat":"47.71995736","lng":"7.86086501"}},{"zip":"97225","cityData":{"country_code":"DE","postal_code":"97225","state":"Bayern","place_name":"Zellingen","lat":"49.90025376","lng":"9.77922189"}},{"zip":"56856","cityData":{"country_code":"DE","postal_code":"56856","state":"Rheinland-Pfalz","place_name":"Zell","lat":"50.02428439","lng":"7.20085014"}},{"zip":"73119","cityData":{"country_code":"DE","postal_code":"73119","state":"Baden-Württemberg","place_name":"Zell unter Aichelberg","lat":"48.64949476","lng":"9.57705446"}},{"zip":"54313","cityData":{"country_code":"DE","postal_code":"54313","state":"Rheinland-Pfalz","place_name":"Zemmer","lat":"49.88060975","lng":"6.68380958"}},{"zip":"94579","cityData":{"country_code":"DE","postal_code":"94579","state":"Bayern","place_name":"Zenting","lat":"48.78275313","lng":"13.26149327"}},{"zip":"39261","cityData":{"country_code":"DE","postal_code":"39261","state":"Sachsen-Anhalt","place_name":"Zerbst","lat":"51.97404192","lng":"12.09314637"}},{"zip":"29499","cityData":{"country_code":"DE","postal_code":"29499","state":"Niedersachsen","place_name":"Zernien","lat":"53.06107598","lng":"10.89951152"}},{"zip":"26340","cityData":{"country_code":"DE","postal_code":"26340","state":"Niedersachsen","place_name":"Zetel","lat":"53.40608225","lng":"7.94671243"}},{"zip":"15738","cityData":{"country_code":"DE","postal_code":"15738","state":"Brandenburg","place_name":"Zeuthen","lat":"52.34706368","lng":"13.61657712"}},{"zip":"86473","cityData":{"country_code":"DE","postal_code":"86473","state":"Bayern","place_name":"Ziemetshausen","lat":"48.28590703","lng":"10.54349705"}},{"zip":"34289","cityData":{"country_code":"DE","postal_code":"34289","state":"Hessen","place_name":"Zierenberg","lat":"51.37674476","lng":"9.26921036"}},{"zip":"89446","cityData":{"country_code":"DE","postal_code":"89446","state":"Bayern","place_name":"Ziertheim","lat":"48.66027980","lng":"10.39697295"}},{"zip":"78658","cityData":{"country_code":"DE","postal_code":"78658","state":"Baden-Württemberg","place_name":"Zimmern ob Rottweil","lat":"48.16580856","lng":"8.55239641"}},{"zip":"72369","cityData":{"country_code":"DE","postal_code":"72369","state":"Baden-Württemberg","place_name":"Zimmern unter der Burg","lat":"48.22239482","lng":"8.72272635"}},{"zip":"18374","cityData":{"country_code":"DE","postal_code":"18374","state":"Mecklenburg-Vorpommern","place_name":"Zingst","lat":"54.43121206","lng":"12.77465654"}},{"zip":"17454","cityData":{"country_code":"DE","postal_code":"17454","state":"Mecklenburg-Vorpommern","place_name":"Zinnowitz","lat":"54.07448885","lng":"13.90256866"}},{"zip":"90513","cityData":{"country_code":"DE","postal_code":"90513","state":"Bayern","place_name":"Zirndorf","lat":"49.43631550","lng":"10.92522358"}},{"zip":"02788","cityData":{"country_code":"DE","postal_code":"02788","state":"Sachsen","place_name":"Schlegel","lat":"50.97780000","lng":"14.87690000"}},{"zip":"85406","cityData":{"country_code":"DE","postal_code":"85406","state":"Bayern","place_name":"Zolling","lat":"48.46773518","lng":"11.77168028"}},{"zip":"06780","cityData":{"country_code":"DE","postal_code":"06780","state":"Sachsen-Anhalt","place_name":"Göttnitz","lat":"51.63720000","lng":"12.06260000"}},{"zip":"85604","cityData":{"country_code":"DE","postal_code":"85604","state":"Bayern","place_name":"Zorneding","lat":"48.08350061","lng":"11.81986768"}},{"zip":"89447","cityData":{"country_code":"DE","postal_code":"89447","state":"Bayern","place_name":"Zöschingen","lat":"48.67908404","lng":"10.30701558"}},{"zip":"15806","cityData":{"country_code":"DE","postal_code":"15806","state":"Brandenburg","place_name":"Telz","lat":"52.22752340","lng":"13.41032140"}},{"zip":"09434","cityData":{"error":true,"status":400,"message":"Postal code in combination with Country code not found","request":["DE","09434"],"timestamp":1720105662}},{"zip":"08321","cityData":{"country_code":"DE","postal_code":"08321","state":"Sachsen","place_name":"Zschorlau","lat":"50.56670000","lng":"12.65000000"}},{"zip":"53909","cityData":{"country_code":"DE","postal_code":"53909","state":"Nordrhein-Westfalen","place_name":"Zülpich","lat":"50.68635287","lng":"6.66981550"}},{"zip":"86441","cityData":{"country_code":"DE","postal_code":"86441","state":"Bayern","place_name":"Zusmarshausen","lat":"48.40795711","lng":"10.59828095"}},{"zip":"74939","cityData":{"country_code":"DE","postal_code":"74939","state":"Baden-Württemberg","place_name":"Zuzenhausen","lat":"49.30104109","lng":"8.82162525"}},{"zip":"66482","cityData":{"country_code":"DE","postal_code":"66482","state":"Rheinland-Pfalz","place_name":"Zweibrücken","lat":"49.24827107","lng":"7.36848829"}},{"zip":"74639","cityData":{"country_code":"DE","postal_code":"74639","state":"Baden-Württemberg","place_name":"Zweiflingen","lat":"49.25432301","lng":"9.50572153"}},{"zip":"04442","cityData":{"country_code":"DE","postal_code":"04442","state":"Sachsen","place_name":"Zwenkau","lat":"51.21870000","lng":"12.33010000"}},{"zip":"08056","cityData":{"country_code":"DE","postal_code":"08056","state":"Sachsen","place_name":"Zwickau","lat":"50.71140000","lng":"12.49280000"}},{"zip":"08058","cityData":{"country_code":"DE","postal_code":"08058","state":"Sachsen","place_name":"Zwickau","lat":"50.74390000","lng":"12.47810000"}},{"zip":"08060","cityData":{"country_code":"DE","postal_code":"08060","state":"Sachsen","place_name":"Zwickau","lat":"50.71880000","lng":"12.46010000"}},{"zip":"08062","cityData":{"country_code":"DE","postal_code":"08062","state":"Sachsen","place_name":"Zwickau","lat":"50.69150000","lng":"12.47340000"}},{"zip":"08064","cityData":{"country_code":"DE","postal_code":"08064","state":"Sachsen","place_name":"Zwickau","lat":"50.67520000","lng":"12.47090000"}},{"zip":"08066","cityData":{"country_code":"DE","postal_code":"08066","state":"Sachsen","place_name":"Zwickau","lat":"50.73190000","lng":"12.52510000"}},{"zip":"88529","cityData":{"country_code":"DE","postal_code":"88529","state":"Baden-Württemberg","place_name":"Zwiefalten","lat":"48.22821448","lng":"9.44009199"}},{"zip":"69439","cityData":{"country_code":"DE","postal_code":"69439","state":"Baden-Württemberg","place_name":"Zwingenberg","lat":"49.41564885","lng":"9.03357756"}},{"zip":"64673","cityData":{"country_code":"DE","postal_code":"64673","state":"Hessen","place_name":"Zwingenberg","lat":"49.72369886","lng":"8.59646577"}},{"zip":"08297","cityData":{"country_code":"DE","postal_code":"08297","state":"Sachsen","place_name":"Zwönitz","lat":"50.63030000","lng":"12.81000000"}}]